site_no,station_nm,dec_lat_va,dec_long_va,huc_cd,flow,flow_dt,flow_unit,flow_nday,class,percentile,percent_median,percent_mean
01010000,"St. John River at Ninemile Bridge, Maine",46.7006,-69.7156,01010001,,,,,0,,,
01010070,"Big Black River near Depot Mtn, Maine",46.8939,-69.7517,01010001,,,,,0,,,
01010500,"St. John River at Dickey, Maine",47.1131,-69.0881,01010001,,,,,0,,,
01011000,"Allagash River near Allagash, Maine",47.0697,-69.0794,01010002,,,,,0,,,
01011500,"St. Francis River near Connors, New Brun",47.207,-68.9564,01010001,262.57,2019-02-28,cfs,7,5,65.51,131.66,90.56
01013500,"Fish River near Fort Kent, Maine",47.2375,-68.5828,01010003,,,,,0,,,
01014000,"St. John River below Fish R, nr Fort Ken",47.2833,-68.5853,01010001,3344.29,2019-02-28,cfs,7,6,82.71,173.15,125.94
01015800,"Aroostook River near Masardis, Maine",46.5231,-68.3717,01010004,,,,,0,,,
01017000,"Aroostook River at Washburn, Maine",46.7772,-68.1572,01010004,,,,,0,,,
01017060,"Hardwood Brook below Glidden Brk nr Cari",46.7836,-67.9892,01010004,,,,,0,,,
01017290,"Little Madawaska River at Caribou, Maine",46.8886,-67.945,01010004,,,,,0,,,
01017550,"Williams Brook at Phair, Maine",46.6281,-67.9531,01010005,,,,,0,,,
01017960,"Meduxnekeag R above S Br Medux. R nr Hou",46.105,-67.8814,01010005,70.7,2019-02-28,cfs,7,0,62.6,111.25,81.03
01018009,"Pearce Brook at Route 1 at Houlton, Main",46.1153,-67.8403,01010005,,,,,0,,,
01018035,"Meduxnekeag River at Lowery Rd. nr Hoult",46.1811,-67.8039,01010005,288,2019-02-28,cfs,7,0,68.12,167.37,93.64
01018500,"St. Croix River at Vanceboro, Maine",45.5683,-67.4283,01050001,802.29,2019-02-28,cfs,7,5,47.6,96.07,91.23
01019000,"Grand Lake Stream at Grand Lake Stream, ",45.1725,-67.7689,01050001,576,2019-02-28,cfs,7,5,65.02,132.07,112.17
01021000,"St. Croix River at Baring, Maine",45.1369,-67.3181,01050001,2611.43,2019-02-28,cfs,7,5,57.07,110.02,100.27
01021470,"Libby Brook near Northfield, Maine",44.8008,-67.725,01050002,,,,,0,,,
01021480,"Old Stream near Wesley, Maine",44.9369,-67.7361,01050002,,,,,0,,,
01022500,"Narraguagus River at Cherryfield, Maine",44.6081,-67.9353,01050002,330,2019-02-28,cfs,7,5,47.94,97.94,66.91
01022840,"Otter Creek near Bar Harbor, Maine",44.3328,-68.2067,01050002,,,,,0,,,
01027200,"North Branch Penobscot River nr Pittston",45.9353,-69.9936,01020001,,,,,0,,,
01027240,"S. Br. Penobscot River nr Canada Falls L",45.8739,-69.995,01020001,,,,,0,,,
01029200,"Seboeis River near Shin Pond, Maine",46.1431,-68.6336,01020002,,,,,0,,,
01029500,"East Branch Penobscot River at Grindston",45.7303,-68.5894,01020002,,,,,0,,,
01030350,"Wytopitlock Stream near Wytopitlock Main",45.7086,-68.1581,01020003,,,,,0,,,
01030500,"Mattawamkeag River near Mattawamkeag, Ma",45.5011,-68.3058,01020003,1325.71,2019-02-28,cfs,7,6,75.68,157.96,106.72
01031300,"Piscataquis River at Blanchard, Maine",45.2672,-69.5839,01020004,,,,,0,,,
01031450,"Kingsbury Stream at Abbot Village, Maine",45.1844,-69.4522,01020004,,,,,0,,,
01031500,"Piscataquis River near Dover-Foxcroft, M",45.175,-69.3147,01020004,286.29,2019-02-28,cfs,7,5,70.93,153.21,96.22
01031510,"Black Stream near Dover-Foxcroft, Maine",45.1503,-69.2364,01020004,,,,,0,,,
01034000,"Piscataquis River at Medford, Maine",45.2606,-68.8686,01020004,,,,,0,,,
01034500,"Penobscot River at West Enfield, Maine",45.2361,-68.6514,01020005,,,,,0,,,
01037000,"Kenduskeag Stream near Bangor, Maine",44.8611,-68.8317,01020005,,,,,0,,,
01037380,"Ducktrap River near Lincolnville, Maine",44.3292,-69.0608,01050002,,,,,0,,,
01038000,"Sheepscot River at North Whitefield, Mai",44.2228,-69.5939,01050003,165.5,2019-02-28,cfs,4,5,46.2,96.06,65.16
01042500,"Kennebec River at The Forks, Maine",45.3397,-69.9619,01030002,5284.29,2019-02-28,cfs,7,7,96.49,192.16,193.12
01043500,"Dead River near Dead River, Maine",45.229,-70.2011,01030002,1678.57,2019-02-28,cfs,7,6,87.96,367.76,242.2
01044550,"Spencer Stream near Grand Falls, Maine",45.3136,-70.2417,01030002,,,,,0,,,
01046000,"Austin Stream at Bingham, Maine",45.0644,-69.8806,01030003,,,,,0,,,
01046500,"Kennebec River at Bingham, Maine",45.0519,-69.8856,01030003,7304,2019-02-28,cfs,5,7,93.61,192.5,172.17
01047000,"Carrabassett River near North Anson, Mai",44.8692,-69.955,01030003,531.14,2019-02-28,cfs,7,6,86.3,221.96,149.06
01047150,"Kennebec River near Madison, Maine",44.7789,-69.8869,01030003,8328.57,2019-02-28,cfs,7,0,74.24,139.98,130.72
01047200,"Sandy River near Madrid, Maine",44.8578,-70.4853,01030003,,,,,0,,,
01048000,"Sandy River near Mercer, Maine",44.7081,-69.9375,01030003,,,,,0,,,
01048220,"East Branch Wesserunsett Stream near Ath",44.9475,-69.6569,01030003,,,,,0,,,
01049265,"Kennebec River at North Sidney, Maine",44.4722,-69.6839,01030003,,,,,0,,,
01049500,"Cobbosseecontee Stream at Gardiner, Main",44.2292,-69.7781,01030003,402.14,2019-02-28,cfs,7,6,80.27,154.46,120.75
01052500,"Diamond River near Wentworth Location, N",44.8775,-71.0575,01040001,186.57,2019-02-28,cfs,7,6,79.4,203.1,101.51
01053500,"Androscoggin River at Errol, NH",44.7825,-71.1286,01040001,3994.29,2019-02-28,cfs,7,7,98.48,206.88,202.29
01053600,"Androscoggin River below Bog Brook at Ca",44.6661,-71.1814,01040001,4038.57,2019-02-28,cfs,7,0,90.91,146.74,154.67
01054000,"Androscoggin River near Gorham, NH",44.4358,-71.1903,01040001,4251.43,2019-02-28,cfs,7,7,96.02,194.38,182.11
01054114,"Peabody River at Gorham, New Hampshire",44.3813,-71.1707,01040001,,,,,0,,,
01054200,"Wild River at Gilead, Maine",44.3906,-70.9797,01040002,,,,,0,,,
01054300,"Ellis River at South Andover, Maine",44.5933,-70.7331,01040002,163,2019-02-28,cfs,7,6,80.94,194.05,114.88
01054500,"Androscoggin River at Rumford, Maine",44.5519,-70.5442,01040002,4910,2019-02-28,cfs,7,7,94.3,182.77,163.32
01055000,"Swift River near Roxbury, Maine",44.6428,-70.5889,01040002,,,,,0,,,
01055500,"Nezinscot River at Turner Center, Maine",44.2694,-70.2297,01040002,,,,,0,,,
01057000,"Little Androscoggin River near South Par",44.3039,-70.5397,01040002,71.44,2019-02-28,cfs,7,5,61.35,112.38,71.18
01059000,"Androscoggin River near Auburn, Maine",44.0722,-70.2081,01040002,5907.14,2019-02-28,cfs,7,6,82.56,141.56,121.71
01063310,"Stony Brook at East Sebago, Maine",43.8556,-70.6397,01060001,1.58,2019-02-28,cfs,7,0,59,121.54,65.83
01064118,"Presumpscot River at Westbrook, Maine",43.6869,-70.3472,01060001,1003.57,2019-02-28,cfs,7,0,48.21,96.54,91.28
01064500,"Saco River near Conway, NH",43.9908,-71.0906,01060002,,,,,0,,,
01064801,"BEARCAMP RIVER AT SOUTH TAMWORTH, NH",43.8301,-71.2878,01060002,,,,,0,,,
01066000,"Saco River at Cornish, Maine",43.8081,-70.7817,01060002,2622.86,2019-02-28,cfs,7,6,79.11,161.19,130.06
01067950,"Kennebunk River near Kennebunk, Maine",43.4322,-70.5533,01060003,,,,,0,,,
01068910,"Mousam River at Route 4 near Sanford, Ma",43.4183,-70.7381,01060003,110.58,2019-02-28,cfs,4,0,66.81,115.78,81.81
01069500,"Mousam River near West Kennebunk, Maine",43.4183,-70.6583,01060003,194.57,2019-02-28,cfs,7,5,56.28,108.72,82.93
01069700,"Branch Brook near Kennebunk, Maine",43.3792,-70.5833,01060003,,,,,0,,,
01072800,"COCHECO RIVER NEAR ROCHESTER, NH.",43.2684,-70.9737,01060003,,,,,0,,,
01072870,"ISINGLASS R AT ROCHESTER NECK RD, NR DOV",43.2348,-70.9565,01060003,,,,,0,,,
01073000,"OYSTER RIVER NEAR DURHAM, NH",43.1487,-70.9651,01060003,24.43,2019-02-28,cfs,6,5,58.78,135.72,77.09
01073319,"LAMPREY RIVER AT LANGFORD ROAD, AT RAYMO",43.0414,-71.2017,01060003,,,,,0,,,
01073500,"LAMPREY RIVER NEAR NEWMARKET, NH",43.1026,-70.9526,01060003,315.86,2019-02-28,cfs,7,5,57.1,107.28,80.3
01073587,"EXETER RIVER AT HAIGH ROAD, NEAR BRENTWO",42.9845,-71.0384,01060003,118.16,2019-02-28,cfs,7,0,49.86,99.77,65.31
01073785,"WINNICUT RIVER AT GREENLAND, NR PORTSMOU",43.0358,-70.8475,01060003,44.09,2019-02-28,cfs,7,0,71.61,162.51,97.39
01074520,"EAST BRANCH PEMIGEWASSET RIVER AT LINCOL",44.0476,-71.6598,01070001,166.5,2019-02-28,cfs,4,0,68.85,147.38,83.32
01075000,"PEMIGEWASSET RIVER AT WOODSTOCK, NH",43.9762,-71.6795,01070001,,,,,0,,,
01076000,"BAKER RIVER NEAR RUMNEY, NH",43.7956,-71.8454,01070001,,,,,0,,,
01076500,"PEMIGEWASSET RIVER AT PLYMOUTH, NH",43.7592,-71.6856,01070001,,,,,0,,,
01077400,"COCKERMOUTH RIVER BELOW HARDY BROOK, AT ",43.7039,-71.8333,01070001,15.79,2019-02-28,cfs,7,0,51.41,104.92,41.38
01078000,"SMITH RIVER NEAR BRISTOL, NH",43.5665,-71.7479,01070001,100.5,2019-02-28,cfs,7,5,67.75,138.22,80.34
01081000,"WINNIPESAUKEE RIVER AT TILTON, NH",43.4417,-71.5876,01070002,1055.71,2019-02-28,cfs,7,5,68.13,129.65,121.25
01081500,"MERRIMACK RIVER AT FRANKLIN JUNCTION, NH",43.4229,-71.6529,01070002,2365.71,2019-02-28,cfs,7,5,69.1,132.37,108.16
01082000,"CONTOOCOOK RIVER AT PETERBOROUGH, NH",42.8626,-71.9592,01070003,95.85,2019-02-28,cfs,4,5,52.5,102.59,72.05
01085000,"CONTOOCOOK RIVER NEAR HENNIKER, NH",43.152,-71.8573,01070003,562.57,2019-02-28,cfs,7,5,59.28,116.85,82.68
01085500,"CONTOOCOOK R BL HOPKINTON DAM AT W HOPKI",43.1929,-71.7473,01070003,712.43,2019-02-28,cfs,7,5,66.24,137.35,90.66
01086000,"WARNER RIVER AT DAVISVILLE, NH",43.2509,-71.7323,01070003,187.86,2019-02-28,cfs,7,5,59.89,110.97,81.17
01089100,"SOUCOOK RIVER, AT PEMBROKE ROAD, NEAR CO",43.2137,-71.4803,01070002,,,,,0,,,
01089500,"SUNCOOK RIVER AT NORTH CHICHESTER, NH",43.2567,-71.3695,01070002,,,,,0,,,
01089925,"SUNCOOK RIVER AT NH 28, NEAR SUNCOOK, NH",43.1598,-71.4059,01070002,,,,,0,,,
01091000,"SOUTH BRANCH PISCATAQUOG RIVER NEAR GOFF",43.0148,-71.6415,01070002,199,2019-02-28,cfs,5,5,63.04,137.24,92.83
01091500,"PISCATAQUOG RIVER NEAR GOFFSTOWN, NH",43.0168,-71.5506,01070002,315.71,2019-02-28,cfs,7,5,61.94,124.15,92.76
01092000,"MERRIMACK R NR GOFFS FALLS, BELOW MANCHE",42.9481,-71.4634,01070002,4750,2019-02-28,cfs,5,5,59.25,119.22,87.53
01093852,"SOUHEGAN RIVER (SITE WLR-1) NEAR MILFORD",42.8426,-71.7067,01070002,212.5,2019-02-28,cfs,4,0,59.5,110.23,65.5
01094000,"SOUHEGAN RIVER AT MERRIMACK, NH",42.8576,-71.5062,01070002,299.71,2019-02-28,cfs,7,5,61.62,122.69,86.22
01094400,"NORTH NASHUA RIVER AT FITCHBURG, MA",42.5762,-71.7881,01070004,118.76,2019-02-28,cfs,7,5,45.83,94.47,67.4
01094500,"NORTH NASHUA RIVER NEAR LEOMINSTER, MA",42.4951,-71.7219,01070004,246.86,2019-02-28,cfs,7,5,63.61,123.74,90.96
01095220,"STILLWATER RIVER NEAR STERLING, MA",42.4109,-71.7912,01070004,61.71,2019-02-28,cfs,7,0,47,87.74,67.85
01095375,"QUINAPOXET RIVER AT CANADA MILLS NEAR HO",42.3729,-71.8281,01070004,76.09,2019-02-28,cfs,7,0,66.97,132.17,96.79
01095434,"GATES BROOK NEAR WEST BOYLSTON, MA",42.3645,-71.7754,01070004,4.7,2019-02-28,cfs,7,0,47.48,86.56,72.76
01095503,"NASHUA RIVER, WATER STREET BRIDGE, AT CL",42.4194,-71.6661,01070004,31.79,2019-02-28,cfs,7,0,75.19,395.4,144.04
01096000,"SQUANNACOOK RIVER NEAR WEST GROTON, MA",42.6343,-71.6578,01070004,135.86,2019-02-28,cfs,7,5,60.03,116.48,84.01
01096500,"NASHUA RIVER AT EAST PEPPERELL, MA",42.6676,-71.5751,01070004,761.29,2019-02-28,cfs,7,5,64.56,121.11,97.92
01097000,"ASSABET RIVER AT MAYNARD, MA",42.432,-71.4498,01070005,347.71,2019-02-28,cfs,7,6,75.3,139.56,122.47
01097300,"NASHOBA BROOK NEAR ACTON, MA",42.5126,-71.4042,01070005,37.33,2019-02-28,cfs,6,5,72.01,141.24,111.57
01098500,"COCHITUATE BK BL LAKE COCHITUATE AT FRAM",42.3151,-71.3838,01070005,48.7,2019-02-28,cfs,7,0,57.07,117.43,123.07
01098530,"SUDBURY RIVER AT SAXONVILLE, MA",42.3254,-71.3976,01070005,316,2019-02-28,cfs,7,5,67.69,113.85,106.59
01099500,"CONCORD R BELOW R MEADOW BROOK, AT LOWEL",42.6368,-71.302,01070002,1108.57,2019-02-28,cfs,7,5,72.98,128.9,120.06
01100000,"MERRIMACK RIVER BL CONCORD RIVER AT LOWE",42.6459,-71.2984,01070002,8168.57,2019-02-28,cfs,7,5,63.13,117.35,96.49
01100505,"SPICKET RIVER AT NORTH SALEM, NH",42.8493,-71.2151,01070002,28.46,2019-02-28,cfs,7,0,52.83,107.15,80.67
01100561,"SPICKET RIVER NEAR METHUEN, MA",42.7431,-71.2084,01070002,137.43,2019-02-28,cfs,7,0,54.81,111.75,83.53
01100568,"SHAWSHEEN RIVER AT HANSCOM FIELD NEAR BE",42.467,-71.2723,01070002,2.95,2019-02-28,cfs,7,0,24.19,69.25,49
01100600,"SHAWSHEEN RIVER NEAR WILMINGTON, MA",42.5681,-71.2148,01070002,99.36,2019-02-28,cfs,7,5,63.72,139.37,108.11
01100627,"SHAWSHEEN RIVER AT BALMORAL STREET AT AN",42.6715,-71.1492,01070002,169.43,2019-02-28,cfs,7,0,41.63,85.23,79.91
01101000,"PARKER RIVER AT BYFIELD, MA",42.7529,-70.9456,01090001,64.03,2019-02-28,cfs,7,5,70.21,137.05,108.53
01101500,"IPSWICH RIVER AT SOUTH MIDDLETON, MA",42.5704,-71.0289,01090001,111.66,2019-02-28,cfs,7,5,64.22,130.05,105.57
01102000,"IPSWICH RIVER NEAR IPSWICH, MA",42.6598,-70.8937,01090001,319.43,2019-02-28,cfs,7,5,70.39,133.33,112.54
01102345,"SAUGUS RIVER AT SAUGUS IRONWORKS AT SAUG",42.4695,-71.007,01090001,54.46,2019-02-28,cfs,5,0,65.45,126.24,106.24
01102500,"ABERJONA RIVER AT WINCHESTER, MA",42.4475,-71.1381,01090001,67.26,2019-02-28,cfs,7,6,75.3,175.66,137.52
01103010,"MYSTIC RIVER AT ARLINGTON, MA",42.4207,-71.1427,01090001,-36.81,2019-02-28,cfs,7,0,0,0,0
01103025,"ALEWIFE BROOK NEAR ARLINGTON, MA",42.407,-71.1339,01090001,14.87,2019-02-28,cfs,7,0,69.31,136.8,112.06
01103280,"CHARLES RIVER AT MEDWAY, MA",42.1398,-71.3895,01090001,173.29,2019-02-28,cfs,7,0,52.47,104.17,91.62
01103455,"TROUT BROOK AT DOVER, MA",42.254,-71.2934,01090001,10.54,2019-02-28,cfs,7,0,63.03,107.66,116.98
01103500,"CHARLES RIVER AT DOVER, MA",42.2562,-71.2601,01090001,521.86,2019-02-28,cfs,7,5,64.73,128.22,114.77
01104000,"MOTHER BROOK AT DEDHAM, MA",42.2551,-71.1642,01090001,10.63,2019-02-28,cfs,7,2,3.24,10.32,8.7
01104200,"CHARLES RIVER AT WELLESLEY, MA",42.3165,-71.2278,01090001,596,2019-02-28,cfs,7,6,80.12,155.35,141.64
01104370,"STONY BROOK AT VILES STREET, NEAR WESTON",42.3856,-71.2894,01090001,28,2019-02-28,cfs,7,0,61.02,123.51,86.85
01104415,"CAMBRIDGE RES., UNNAMED TRIB 2, NR LEXIN",42.4359,-71.2601,01090001,0.99,2019-02-28,cfs,7,0,52,108.79,78.57
01104420,"CAMBRIDGE RES., UNNAMED TRIB 3, NR LEXIN",42.4198,-71.2576,01090001,2.49,2019-02-28,cfs,7,0,49.77,99.6,87.99
01104430,"HOBBS BK BELOW CAMBRIDGE RES NR KENDALL ",42.3982,-71.2734,01090001,21,2019-02-28,cfs,7,0,93.36,995.26,395.48
01104455,"STONY BROOK, UNNAMED TRIBUTARY 1, NEAR W",42.3726,-71.2703,01090001,1.3,2019-02-28,cfs,7,0,54.64,111.11,93.53
01104460,"STONY BROOK AT RT 20 AT WALTHAM, MA",42.369,-71.2706,01090001,62.53,2019-02-28,cfs,7,0,77.17,130.19,120.6
01104475,"STONY BROOK RES., UNNAMED TRIB 1, NEAR W",42.3545,-71.2681,01090001,1.91,2019-02-28,cfs,7,0,49.71,98.96,92.72
01104480,"STONY BROOK RESERVOIR AT DAM NEAR WALTHA",42.3557,-71.2651,01090001,50.96,2019-02-28,cfs,7,0,80.29,163.33,149.66
01104500,"CHARLES RIVER AT WALTHAM, MA",42.3723,-71.2337,01090001,690.43,2019-02-28,cfs,7,6,86.61,165.94,155.4
01105000,"NEPONSET RIVER AT NORWOOD, MA",42.1776,-71.2009,01090001,114.5,2019-02-28,cfs,7,6,75.2,135.73,130.4
01105500,"EAST BRANCH NEPONSET RIVER AT CANTON, MA",42.1545,-71.1459,01090001,87.61,2019-02-28,cfs,7,5,61.56,118.97,113.18
01105554,"NEPONSET RIVER AT GREENLODGE ST NEAR CAN",42.2093,-71.1459,01090001,236.14,2019-02-28,cfs,7,0,38.9,87.74,90.88
01105583,"MONATIQUOT RIVER AT EAST BRAINTREE, MA",42.2209,-70.9781,01090001,75.81,2019-02-28,cfs,7,0,38.57,84.47,85.07
01105585,"TOWN BROOK AT QUINCY, MA",42.2479,-70.9973,01090001,8.06,2019-02-28,cfs,5,5,50.98,101.26,78.71
01105600,"OLD SWAMP RIVER NEAR SOUTH WEYMOUTH, MA",42.1904,-70.9448,01090002,12.18,2019-02-28,cfs,7,5,49.64,98.94,81.47
01105606,"WHITMANS POND, WHITMANS POND DAM AT E. W",42.2108,-70.9294,01090001,16.27,2019-02-28,cfs,7,0,34.9,65.45,57.7
01105608,"WHITMANS POND FISH LADDER AT EAST WEYMOU",42.2131,-70.9264,01090001,26.07,2019-02-28,cfs,7,0,92.26,380.58,290.31
01105638,"WEIR RIVER AT LEAVITT STREET AT HINGHAM,",42.2348,-70.872,01090001,38.77,2019-02-28,cfs,7,0,45.45,81.3,108.45
01105730,"INDIAN HEAD RIVER AT HANOVER, MA",42.1007,-70.8225,01090002,102.83,2019-02-28,cfs,7,5,57.28,117.33,95.78
01105870,"JONES RIVER AT KINGSTON, MA",41.9909,-70.7337,01090002,60.7,2019-02-28,cfs,7,5,74.33,129.12,118.46
01105876,"EEL RIVER AT RT 3A NEAR PLYMOUTH, MA",41.9418,-70.6225,01090002,39.67,2019-02-28,cfs,7,0,79.33,125.66,120.43
01105880,"HERRING RIVER AT NORTH HARWICH, MA",41.7001,-70.107,01090002,15.23,2019-02-28,cfs,7,5,59.22,128.2,126.92
01105917,"MATTAPOISETT RIVER NEAR MATTAPOISETT, MA",41.6626,-70.8384,01090002,94.19,2019-02-28,cfs,7,0,70.18,139.11,119.23
01105933,"PASKAMANSET RIVER NEAR SOUTH DARTMOUTH, ",41.5854,-70.9903,01090002,110.26,2019-02-28,cfs,7,0,66.13,154.56,120.59
01108000,"TAUNTON RIVER NEAR BRIDGEWATER, MA",41.934,-70.9564,01090004,1021.29,2019-02-28,cfs,7,6,80.07,141.43,130.31
01108410,"MILL RIVER AT SPRING STREET AT TAUNTON, ",41.8998,-71.0895,01090004,153.29,2019-02-28,cfs,7,0,46.56,94.96,108.32
01109000,"WADING RIVER NEAR NORTON, MA",41.9476,-71.1767,01090004,133,2019-02-28,cfs,7,5,62.9,118.6,111.65
01109060,"THREEMILE RIVER AT NORTH DIGHTON, MA",41.8662,-71.1228,01090004,278.14,2019-02-28,cfs,7,5,57.5,116.72,108.33
01109070,"SEGREGANSET RIVER NEAR DIGHTON, MA",41.8404,-71.1428,01090004,40.46,2019-02-28,cfs,7,5,60.44,128.85,101.81
01109403,"TEN MILE R., PAWTUCKET AVE. AT E. PROVID",41.8309,-71.3503,01090004,183.29,2019-02-28,cfs,7,5,66.98,131.13,114.86
01109730,"BLACKSTONE RIVER, W. MAIN ST., AT MILLBU",42.189,-71.7651,01090003,164.45,2019-02-28,cfs,4,0,37.5,75.24,76.76
01110000,"QUINSIGAMOND RIVER AT NORTH GRAFTON, MA",42.2304,-71.7109,01090003,58.89,2019-02-28,cfs,7,5,65.44,113.71,107.01
01111212,"BLACKSTONE RIVER, RT 122 BRIDGE NEAR UXB",42.0548,-71.6165,01090003,658.86,2019-02-28,cfs,7,0,44.75,90.97,86.21
01111300,"NIPMUC RIVER NEAR HARRISVILLE, RI",41.9812,-71.6859,01090003,44.02,2019-02-28,cfs,6,5,48.07,91.98,85.05
01111500,"BRANCH RIVER AT FORESTDALE, RI",41.9965,-71.562,01090003,261.71,2019-02-28,cfs,7,5,55.73,114.9,99.43
01112500,"BLACKSTONE RIVER AT WOONSOCKET, RI",42.0065,-71.5026,01090003,1214.29,2019-02-28,cfs,7,5,60.13,127.35,110.01
01113895,"BLACKSTONE R AT ROOSEVELT ST AT PAWTUCKE",41.8884,-71.3814,01090004,1362.86,2019-02-28,cfs,7,0,50.86,101.81,99.1
01114000,"MOSHASSUCK RIVER AT PROVIDENCE, RI",41.834,-71.4106,01090004,68.74,2019-02-28,cfs,7,5,71.19,152.25,120.41
01114500,"WOONASQUATUCKET RIVER AT CENTERDALE, RI",41.859,-71.4873,01090004,114.29,2019-02-28,cfs,7,5,61.51,120.85,102.43
01115098,"PEEPTOAD BROOK AT ELMDALE RD NR NORTH SC",41.8526,-71.6062,01090004,16.63,2019-02-28,cfs,7,0,57.21,114.14,86.39
01115110,"HUNTINGHOUSE BK AT ELMDALE RD AT N SCITU",41.8468,-71.6117,01090004,17.69,2019-02-28,cfs,7,0,27.99,55.45,53.54
01115114,"RUSH BROOK NEAR ELMDALE RD NEAR NORTH SC",41.8376,-71.612,01090004,14.75,2019-02-28,cfs,7,0,27.7,78.42,59.26
01115170,"MOSWANSICUT STREAM NR NORTH SCITUATE, RI",41.8409,-71.5845,01090004,9.58,2019-02-28,cfs,7,0,45.99,87.81,82.23
01115183,"QUONAPAUG BK AT RT 116 NR NORTH SCITUATE",41.7976,-71.5848,01090004,7.23,2019-02-28,cfs,7,0,51.8,103.88,81.51
01115187,"PONAGANSET RIVER AT SOUTH FOSTER, RI",41.8187,-71.7051,01090004,37.77,2019-02-28,cfs,7,0,41.93,84.67,71.71
01115190,"DOLLY COLE BK AT OLD DANIELSON PK AT S F",41.8223,-71.7003,01090004,16.51,2019-02-28,cfs,7,0,43.43,92.23,67.72
01115265,"HEMLOCK BROOK AT KING ROAD NR FOSTER, RI",41.7907,-71.6987,01090004,21.7,2019-02-28,cfs,7,0,24.9,57.42,46.48
01115276,"WESTCONNAUG STREAM AT PLAINFIELD PIKE, R",41.7854,-71.6673,01090004,13.11,2019-02-28,cfs,7,0,70.5,110.08,108.53
01115280,"CORK BK AT ROCKLAND SCITUATE RD NR CLAYV",41.804,-71.6498,01090004,5.35,2019-02-28,cfs,7,0,44.04,85.19,62.94
01115630,"NOOSENECK RIVER AT NOOSENECK, RI",41.6268,-71.6326,01090004,30.39,2019-02-28,cfs,7,0,58.08,113.65,100
01116000,"SOUTH BRANCH PAWTUXET RIVER AT WASHINGTO",41.6901,-71.5659,01090004,188.14,2019-02-28,cfs,7,5,54.38,106.98,106.14
01116500,"PAWTUXET RIVER AT CRANSTON, RI",41.7509,-71.4451,01090004,612,2019-02-28,cfs,7,6,75.07,139.63,128.95
01116905,"HUNT R 250 FT DS FRY BRK AT FRENCHTOWN, ",41.63,-71.4789,01090004,76.66,2019-02-28,cfs,7,0,57.84,127.41,104.94
01117000,"HUNT RIVER NEAR EAST GREENWICH, RI",41.6412,-71.4445,01090004,99.79,2019-02-28,cfs,7,6,78.46,138.58,133.55
01117350,"CHIPUXET RIVER AT WEST KINGSTON, RI",41.4823,-71.5512,01090005,40.41,2019-02-28,cfs,7,5,73.22,134.88,126.44
01117370,"QUEEN R AT LIBERTY RD AT LIBERTY RI",41.539,-71.5687,01090005,75.24,2019-02-28,cfs,7,0,77.93,139.33,128.42
01117420,"USQUEPAUG RIVER NEAR USQUEPAUG, RI",41.4768,-71.6048,01090005,131.86,2019-02-28,cfs,7,5,65.88,124.09,114.72
01117430,"PAWCATUCK RIVER AT KENYON, RI",41.4462,-71.6212,01090005,290.14,2019-02-28,cfs,7,0,81.36,132.01,127.11
01117468,"BEAVER RIVER NEAR USQUEPAUG, RI",41.4926,-71.6281,01090005,31.64,2019-02-28,cfs,7,5,58.93,105.64,104.87
01117500,"PAWCATUCK RIVER AT WOOD RIVER JUNCTION, ",41.4451,-71.6809,01090005,403.86,2019-02-28,cfs,7,6,84.74,146.36,139.64
01117800,"WOOD RIVER NEAR ARCADIA, RI",41.574,-71.7206,01090005,117.86,2019-02-28,cfs,7,5,57.79,111.26,104.2
01118000,"WOOD RIVER AT HOPE VALLEY, RI",41.4982,-71.7165,01090005,255.29,2019-02-28,cfs,7,5,66.71,119.46,110.78
01118300,"PENDLETON HILL BROOK NEAR CLARKS FALLS, ",41.4748,-71.8342,01090005,15.57,2019-02-28,cfs,7,5,60.31,122.7,108.96
01118500,"PAWCATUCK RIVER AT WESTERLY, RI",41.3837,-71.8331,01090005,1061.57,2019-02-28,cfs,7,5,72.81,128.76,122.2
01119382,"WILLIMANTIC RIVER AT MERROW RD. NEAR MER",41.824,-72.3129,01100002,251.14,2019-02-28,cfs,7,0,37.13,79.05,80.67
01119500,"WILLIMANTIC RIVER NEAR COVENTRY, CT",41.7507,-72.2656,01100002,340.29,2019-02-28,cfs,7,5,64.42,133.97,116.93
01120790,"NATCHAUG RIVER AT MARCY RD. NEAR CHAPLIN",41.8162,-72.1062,01100002,171.86,2019-02-28,cfs,7,0,41.21,87.81,76.04
01121000,"MOUNT HOPE RIVER NEAR WARRENVILLE, CT",41.8437,-72.169,01100002,89.04,2019-02-28,cfs,7,5,63.97,132.9,110.77
01121330,"FENTON RIVER AT MANSFIELD, CT",41.8332,-72.2428,01100002,48.1,2019-02-28,cfs,7,0,43.2,98.3,84.68
01122000,"NATCHAUG RIVER AT WILLIMANTIC, CT",41.7201,-72.1956,01100002,427.71,2019-02-28,cfs,7,5,58.31,122.5,101.86
01122500,"SHETUCKET RIVER NEAR WILLIMANTIC, CT",41.7004,-72.182,01100002,1193.43,2019-02-28,cfs,7,5,64.9,136.73,119.25
01123000,"LITTLE RIVER NEAR HANOVER, CT",41.6718,-72.0523,01100002,106.53,2019-02-28,cfs,7,5,72.54,144.27,128.26
01123360,"QUINEBAUG R BL E BRIMFIELD DAM AT FISKDA",42.1084,-72.1261,01100001,163.29,2019-02-28,cfs,7,5,50.07,100.06,91.49
01123600,"QUINEBAUG R BL WESTVILLE DAM NR SOUTHBRI",42.0826,-72.0584,01100001,260,2019-02-28,cfs,6,5,66.63,128.44,110.02
01124000,"QUINEBAUG RIVER AT QUINEBAUG, CT",42.0223,-71.9556,01100001,409,2019-02-28,cfs,7,5,66.26,131.39,109.83
01124151,"QUINEBAUG RIVER AT WEST THOMPSON, CT",41.9436,-71.8996,01100001,448.43,2019-02-28,cfs,7,5,65.32,121.95,104.96
01125100,"FRENCH RIVER AT NORTH GROSVENORDALE, CT",41.9785,-71.9005,01100001,238,2019-02-28,cfs,7,0,53.28,100.6,97.48
01125490,"LITTLE RIVER AT HARRISVILLE, CT",41.9278,-71.93,01100001,107.81,2019-02-28,cfs,7,0,74.16,221.79,161.68
01125500,"QUINEBAUG RIVER AT PUTNAM, CT",41.9095,-71.9139,01100001,843.43,2019-02-28,cfs,7,5,65.76,129.74,111.94
01127000,"QUINEBAUG RIVER AT JEWETT CITY, CT",41.5975,-71.9841,01100001,2054.29,2019-02-28,cfs,7,5,63.08,127.71,113.34
01127500,"YANTIC RIVER AT YANTIC, CT",41.5587,-72.1215,01100003,319,2019-02-28,cfs,7,5,70.04,152.58,120.12
01129200,"CONNECTICUT R BELOW INDIAN STREAM NR PIT",45.0403,-71.444,01080101,628.57,2019-02-28,cfs,7,5,42.51,91.19,92.89
01129500,"CONNECTICUT RIVER AT NORTH STRATFORD, NH",44.7498,-71.6312,01080101,,,,,0,,,
01130000,"UPPER AMMONOOSUC RIVER NEAR GROVETON, NH",44.6251,-71.469,01080101,,,,,0,,,
01131500,"CONNECTICUT RIVER NEAR DALTON, NH",44.4101,-71.7206,01080101,2122.86,2019-02-28,cfs,7,6,75.72,139.79,106.26
01133000,"EAST BRANCH PASSUMPSIC RIVER NEAR EAST H",44.6339,-71.8976,01080102,,,,,0,,,
01134500,"MOOSE RIVER AT VICTORY, VT",44.5117,-71.8373,01080102,,,,,0,,,
01135150,"POPE BROOK (SITE W-3) NEAR NORTH DANVILL",44.4762,-72.1245,01080102,,,,,0,,,
01135300,"SLEEPERS RIVER (SITE W-5) NEAR ST. JOHNS",44.4353,-72.0384,01080102,,,,,0,,,
01135500,"PASSUMPSIC RIVER AT PASSUMPSIC, VT",44.3656,-72.0393,01080102,,,,,0,,,
01137500,"AMMONOOSUC RIVER AT BETHLEHEM JUNCTION, ",44.2687,-71.6304,01080101,,,,,0,,,
01138500,"CONNECTICUT RIVER AT WELLS RIVER, VT",44.1534,-72.0418,01080101,4021.43,2019-02-28,cfs,7,5,63.89,117.44,93.95
01139000,"WELLS RIVER AT WELLS RIVER, VT",44.1503,-72.0651,01080103,,,,,0,,,
01139800,"EAST ORANGE BRANCH AT EAST ORANGE, VT",44.0928,-72.3357,01080103,,,,,0,,,
01140817,"ELIZABETH MINE DISCHARGE NR S STRAFFORD,",43.8359,-72.3359,01080103,0.12,2019-02-28,cfs,7,0,0,0,0
01142500,"AYERS BROOK AT RANDOLPH, VT",43.9345,-72.6579,01080105,,,,,0,,,
01144000,"WHITE RIVER AT WEST HARTFORD, VT",43.7142,-72.4182,01080105,,,,,0,,,
01144500,"CONNECTICUT RIVER AT WEST LEBANON, NH",43.6462,-72.3123,01080105,,,,,0,,,
01150900,"OTTAUQUECHEE RIVER NEAR WEST BRIDGEWATER",43.6223,-72.759,01080106,36.87,2019-02-28,cfs,7,5,60.37,130.33,64.98
01151500,"OTTAUQUECHEE RIVER AT NORTH HARTLAND, VT",43.6026,-72.3543,01080106,331.33,2019-02-28,cfs,6,5,70.86,150.56,93.44
01152500,"SUGAR RIVER AT WEST CLAREMONT, NH",43.3876,-72.362,01080104,,,,,0,,,
01153000,"BLACK RIVER AT NORTH SPRINGFIELD, VT",43.3334,-72.5148,01080106,,,,,0,,,
01153550,"WILLIAMS RIVER NEAR ROCKINGHAM VT",43.1917,-72.4851,01080107,169.25,2019-02-28,cfs,4,5,63.21,147.34,72.43
01154000,"SAXTONS RIVER AT SAXTONS RIVER, VT",43.1376,-72.4881,01080107,113.11,2019-02-28,cfs,7,5,69.13,150.03,88.87
01154500,"CONNECTICUT RIVER AT NORTH WALPOLE, NH",43.1262,-72.4368,01080104,8612.86,2019-02-28,cfs,7,5,72.17,139.88,101.46
01154950,"COLD RIVER AT HIGH STREET, AT ALSTEAD, N",43.1494,-72.3617,01080104,,,,,0,,,
01155500,"WEST RIVER AT JAMAICA, VT",43.109,-72.7754,01080107,,,,,0,,,
01157000,"ASHUELOT RIVER NEAR GILSUM, NH",43.0392,-72.2701,01080201,109.75,2019-02-28,cfs,4,5,70.36,179.51,99
01158000,"ASHUELOT RIVER BELOW SURRY MT DAM, NEAR ",42.9948,-72.3112,01080201,112.31,2019-02-28,cfs,7,5,55.42,103.25,63.22
01158110,"ASHUELOT RIVER ABOVE THE BRANCH, AT KEEN",42.9192,-72.2793,01080201,136.67,2019-02-28,cfs,6,0,36.96,36.21,36.21
01160350,"ASHUELOT RIVER AT WEST SWANZEY, NH",42.8715,-72.3281,01080201,413.14,2019-02-28,cfs,7,0,56.09,114.99,66.07
01161000,"ASHUELOT RIVER AT HINSDALE, NH",42.7859,-72.4862,01080201,515.86,2019-02-28,cfs,7,5,50.95,101.35,70.27
01162000,"MILLERS RIVER NEAR WINCHENDON, MA",42.6843,-72.0834,01080202,,,,,0,,,
01162500,"PRIEST BROOK NEAR WINCHENDON, MA",42.6826,-72.1151,01080202,,,,,0,,,
01163200,"OTTER RIVER AT OTTER RIVER, MA",42.5884,-72.0409,01080202,,,,,0,,,
01166500,"MILLERS RIVER AT ERVING, MA",42.5976,-72.4379,01080202,,,,,0,,,
01168250,"COLD RIVER AT FLORIDA, MA",42.6667,-73.0302,01080203,,,,,0,,,
01168500,"DEERFIELD RIVER AT CHARLEMONT, MA",42.626,-72.8542,01080203,1430,2019-02-28,cfs,7,6,82.69,142.54,133.2
01169000,"NORTH RIVER AT SHATTUCKVILLE, MA",42.6384,-72.7251,01080203,150,2019-02-28,cfs,7,5,64.26,126.05,78.08
01169900,"SOUTH RIVER NEAR CONWAY, MA",42.542,-72.6937,01080203,56.31,2019-02-28,cfs,7,5,65.65,148.46,90.87
01170000,"DEERFIELD RIVER NEAR WEST DEERFIELD, MA",42.5359,-72.6534,01080203,1391.43,2019-02-28,cfs,7,5,56.5,106.57,87.99
01170100,"GREEN RIVER NEAR COLRAIN, MA",42.7034,-72.6706,01080203,59.89,2019-02-28,cfs,7,5,51.07,102.08,62.19
01170500,"CONNECTICUT RIVER AT MONTAGUE CITY, MA",42.5802,-72.5745,01080201,9301.43,2019-02-28,cfs,7,5,47.13,95.27,74.13
01171500,"MILL RIVER AT NORTHAMPTON, MA",42.319,-72.6651,01080201,123.72,2019-02-28,cfs,5,5,69.18,147.29,100.54
01172010,"CONNECTICUT R AT I-391 BRIDGE AT HOLYOKE",42.1915,-72.6093,01080201,15500,2019-02-28,cfs,7,0,75.7,150.16,113.99
01172500,"WARE RIVER NEAR BARRE, MA",42.4251,-72.0245,01080204,117.57,2019-02-28,cfs,7,5,65.45,125.52,95.79
01173000,"WARE RIVER AT INTAKE WORKS NEAR BARRE, M",42.3906,-72.0604,01080204,206.86,2019-02-28,cfs,7,5,68.42,129.75,101.36
01173500,"WARE RIVER AT GIBBS CROSSING, MA",42.2362,-72.2726,01080204,485.67,2019-02-28,cfs,6,5,73.33,152.39,127.74
01174500,"EAST BRANCH SWIFT RIVER NEAR HARDWICK, M",42.3934,-72.2384,01080204,132.14,2019-02-28,cfs,7,6,76.35,193.53,142.32
01174565,"WEST BRANCH SWIFT RIVER NEAR SHUTESBURY,",42.4551,-72.3818,01080204,26.57,2019-02-28,cfs,7,0,60.94,124.57,82.59
01175500,"SWIFT RIVER AT WEST WARE, MA",42.2679,-72.3326,01080204,468.29,2019-02-28,cfs,7,7,98,1074.8,571.85
01175670,"SEVENMILE RIVER NEAR SPENCER, MA",42.2651,-72.0048,01080204,19.36,2019-02-28,cfs,7,5,58.82,113.88,86.24
01176000,"QUABOAG RIVER AT WEST BRIMFIELD, MA",42.1823,-72.2637,01080204,358.43,2019-02-28,cfs,7,5,67.59,133.25,113.57
01177000,"CHICOPEE RIVER AT INDIAN ORCHARD, MA",42.1606,-72.514,01080204,1751.43,2019-02-28,cfs,7,6,79.72,174.26,155.91
01179500,"WESTFIELD RIVER AT KNIGHTVILLE, MA",42.2879,-72.8643,01080206,354,2019-02-28,cfs,6,5,67.62,156.29,93.74
01181000,"WEST BRANCH WESTFIELD RIVER AT HUNTINGTO",42.2373,-72.8957,01080206,216.71,2019-02-28,cfs,7,5,66.01,159.43,90.19
01183500,"WESTFIELD RIVER NEAR WESTFIELD, MA",42.1068,-72.699,01080206,995.57,2019-02-28,cfs,7,5,66.24,130.36,90.84
01184000,"CONNECTICUT RIVER AT THOMPSONVILLE, CT",41.9873,-72.6054,01080205,16600,2019-02-28,cfs,7,5,70.6,131.75,102.73
01184100,"STONY BROOK NEAR WEST SUFFIELD, CT",41.9608,-72.7105,01080205,29,2019-02-28,cfs,7,5,55.53,105.42,101.05
01184490,"BROAD BROOK AT BROAD BROOK, CT",41.9139,-72.5497,01080205,47.57,2019-02-28,cfs,7,6,83.7,162.41,151.74
01185500,"WEST BRANCH FARMINGTON RIVER NEAR NEW BO",42.0789,-73.0729,01080207,157.71,2019-02-28,cfs,7,5,53.1,105.75,79.17
01186000,"WEST BRANCH FARMINGTON RIVER AT RIVERTON",41.9629,-73.0176,01080207,302.86,2019-02-28,cfs,7,6,80.97,156.35,133.58
01186500,"STILL RIVER AT ROBERTSVILLE, CT",41.9679,-73.0334,01080207,174.43,2019-02-28,cfs,7,5,57.36,120.41,77.56
01187300,"HUBBARD RIVER NEAR WEST HARTLAND, CT",42.0375,-72.9393,01080207,47.36,2019-02-28,cfs,7,5,64.57,146.04,92.01
01187800,"NEPAUG R NR NEPAUG, CT.",41.8207,-72.9701,01080207,48.47,2019-02-28,cfs,7,5,59.91,134.08,102.93
01188000,"BUNNELL BROOK NEAR BURLINGTON, CT",41.7862,-72.9648,01080207,10.9,2019-02-28,cfs,7,5,63.17,141.56,102.54
01188090,"FARMINGTON RIVER AT UNIONVILLE, CT",41.7555,-72.887,01080207,861.14,2019-02-28,cfs,7,6,77.13,134.36,118.41
01189000,"PEQUABUCK R AT FORESTVILLE, CT.",41.6732,-72.9007,01080207,137.71,2019-02-28,cfs,7,5,74.23,156.99,131.91
01189995,"FARMINGTON RIVER AT TARIFFVILLE, CT",41.9083,-72.7594,01080207,1445.71,2019-02-28,cfs,7,5,70.43,142.21,106.45
01191000,"NORTH BRANCH PARK RIVER AT HARTFORD, CT",41.7844,-72.7081,01080205,82.27,2019-02-28,cfs,7,5,70.34,180.54,115.29
01192500,"HOCKANUM RIVER NEAR EAST HARTFORD, CT",41.7832,-72.5873,01080205,201.57,2019-02-28,cfs,7,6,75.02,142.24,130.42
01192883,"COGINCHAUG RIVER AT MIDDLEFIELD, CT",41.5202,-72.7065,01080205,123.51,2019-02-28,cfs,7,5,69.06,134.15,113.55
01193500,"SALMON RIVER NEAR EAST HAMPTON, CT",41.5523,-72.4492,01080205,361.29,2019-02-28,cfs,7,6,77.36,153.09,127.25
01194000,"EIGHTMILE RIVER AT NORTH PLAIN, CT",41.4417,-72.3327,01080205,75.37,2019-02-28,cfs,7,5,66.35,138.12,107.49
01194500,"EAST BRANCH EIGHTMILE RIVER NEAR NORTH L",41.4275,-72.3348,01080205,81.66,2019-02-28,cfs,7,5,64.05,132.01,103.64
01195100,"INDIAN RIVER NEAR CLINTON, CT",41.3062,-72.531,01100004,23.11,2019-02-28,cfs,7,6,79.67,179.98,141.35
01195490,"QUINNIPIAC RIVER AT SOUTHINGTON, CT",41.6035,-72.8832,01100004,53.11,2019-02-28,cfs,7,0,70.6,162.42,123.54
01196500,"QUINNIPIAC RIVER AT WALLINGFORD, CT",41.4503,-72.8413,01100004,381.14,2019-02-28,cfs,7,5,73.13,147.4,125.4
01196561,"MUDDY RIVER NEAR EAST WALLINGFORD, CT",41.4356,-72.7795,01100004,31.51,2019-02-28,cfs,7,0,61.87,176.13,103.55
01196620,"MILL RIVER NEAR HAMDEN, CT",41.4204,-72.9027,01100004,95.57,2019-02-28,cfs,7,6,76.39,173.32,135.75
01197000,"EAST BRANCH HOUSATONIC RIVER AT COLTSVIL",42.4696,-73.1973,01100005,81.14,2019-02-28,cfs,7,5,55.72,106.23,71.1
01197500,"HOUSATONIC RIVER NEAR GREAT BARRINGTON, ",42.2319,-73.3547,01100005,533.29,2019-02-28,cfs,7,5,66.34,127.45,92.52
01198000,"GREEN RIVER NEAR GREAT BARRINGTON, MA",42.1929,-73.3912,01100005,116.29,2019-02-28,cfs,7,5,71.26,188.87,109.04
01198125,"HOUSATONIC RIVER NEAR ASHLEY FALLS, MA",42.0748,-73.3335,01100005,954.5,2019-02-28,cfs,4,0,55.88,123.68,75.81
01199000,"HOUSATONIC RIVER AT FALLS VILLAGE, CT",41.9573,-73.3693,01100005,1310,2019-02-28,cfs,7,5,68.6,140.65,103.75
01199050,"SALMON CREEK AT LIME ROCK, CT",41.9423,-73.391,01100005,50.47,2019-02-28,cfs,7,5,63.64,123.52,84.45
01200000,"TENMILE RIVER NEAR GAYLORDSVILLE, CT",41.6588,-73.5287,01100005,459.86,2019-02-28,cfs,7,5,63.05,146.39,103.98
01200500,"HOUSATONIC RIVER AT GAYLORDSVILLE, CT",41.6531,-73.4898,01100005,2221.43,2019-02-28,cfs,7,5,66.45,139.51,103.38
01201487,"STILL RIVER AT ROUTE 7 AT BROOKFIELD CEN",41.4658,-73.4032,01100005,210.71,2019-02-28,cfs,7,0,65.83,162.01,113.47
01202501,"SHEPAUG RIVER AT PETERS DAM AT WOODVILLE",41.7196,-73.2926,01100005,55.94,2019-02-28,cfs,7,0,58.42,112.1,79.46
01203510,"POOTATUCK RIVER AT SANDY HOOK, CT",41.4193,-73.2821,01100005,87.23,2019-02-28,cfs,7,0,68.39,167.33,115.06
01203600,"NONEWAUG RIVER AT MINORTOWN, CT",41.5759,-73.1785,01100005,47.17,2019-02-28,cfs,6,5,62.7,130.52,95.7
01203805,"WEEKEEPEEMEE RIVER AT HOTCHKISSVILLE, CT",41.5577,-73.2154,01100005,65.51,2019-02-28,cfs,7,0,50.63,103.21,72.54
01204000,"POMPERAUG RIVER AT SOUTHBURY, CT",41.4819,-73.2246,01100005,193.71,2019-02-28,cfs,7,5,62.6,122.49,103.08
01205500,"HOUSATONIC RIVER AT STEVENSON, CT",41.3838,-73.1666,01100005,3427.14,2019-02-28,cfs,7,5,64.05,130.06,102.04
01206900,"NAUGATUCK RIVER AT THOMASTON, CT",41.6737,-73.0695,01100005,217.57,2019-02-28,cfs,7,5,56.96,109.18,74.28
01208500,"NAUGATUCK RIVER AT BEACON FALLS, CT",41.4423,-73.0623,01100005,778.29,2019-02-28,cfs,7,5,64.41,143.41,110.17
01208950,"SASCO BROOK NEAR SOUTHPORT, CT",41.1529,-73.3059,01100006,34.43,2019-02-28,cfs,7,6,81.76,216.27,159.84
01208990,"SAUGATUCK RIVER NEAR REDDING, CT",41.2945,-73.3951,01100006,75.34,2019-02-28,cfs,7,5,70.36,157.88,123.29
01209005,"SAUGATUCK R BELOW SAUGATUCK RES NR LYONS",41.2455,-73.3492,01100006,124.84,2019-02-28,cfs,7,0,69.5,384.36,140.92
01209105,"ASPETUCK RIVER AT ASPETUCK, CT",41.2287,-73.3241,01100006,57.47,2019-02-28,cfs,7,0,51.03,108.87,82.01
01209500,"SAUGATUCK RIVER NEAR WESTPORT, CT",41.1707,-73.3648,01100006,314.71,2019-02-28,cfs,7,6,78.21,237.91,156.28
01209700,"NORWALK RIVER AT SOUTH WILTON, CT",41.1638,-73.4195,01100006,118.61,2019-02-28,cfs,7,6,76.69,193.74,143.87
01209761,"FIVEMILE RIVER NEAR NEW CANAAN, CT",41.1743,-73.5111,01100006,5.24,2019-02-28,cfs,7,0,69.39,193.36,118.82
01209901,"RIPPOWAM RIVER AT STAMFORD, CT.",41.0661,-73.5493,01100006,121.47,2019-02-28,cfs,7,0,85.16,271.02,178.34
01212500,"BYRAM RIVER AT PEMBERWICK, CT",41.0273,-73.6618,02030102,98.11,2019-02-28,cfs,7,0,53.02,109.38,97.52
01302020,"BRONX RIVER AT NY BOTANICAL GARDEN AT BR",40.8623,-73.8744,02030102,109.21,2019-02-28,cfs,7,0,53.01,106.79,96.4
01303000,"MILL NECK CREEK AT MILL NECK NY",40.8875,-73.5636,02030201,,,,,0,,,
01303500,"COLD SPRING BROOK AT COLD SPRING HARBOR ",40.8572,-73.4633,02030201,2.81,2019-02-28,cfs,4,5,48.21,98.25,92.74
01304000,"NISSEQUOGUE RIVER NEAR SMITHTOWN NY",40.8494,-73.2242,02030201,51.07,2019-02-28,cfs,7,5,69.57,113.24,108.91
01304500,"PECONIC RIVER AT RIVERHEAD NY",40.9136,-72.6867,02030202,57.64,2019-02-28,cfs,7,6,83.09,139.19,133.21
01305000,"CARMANS RIVER AT YAPHANK NY",40.8303,-72.9061,02030202,,,,,0,,,
01306460,"CONNETQUOT BK NR CENTRAL ISLIP NY",40.7719,-73.1586,02030202,41.86,2019-02-28,cfs,7,7,92.29,154.24,143.21
01306500,"CONNETQUOT RIVER NEAR OAKDALE NY",40.7475,-73.1503,02030202,57.67,2019-02-28,cfs,7,7,95.18,139,136.34
01308000,"SAMPAWAMS CREEK AT BABYLON NY",40.7042,-73.3139,02030202,16.42,2019-02-28,cfs,4,7,90.19,160.51,150.92
01308500,"CARLLS RIVER AT BABYLON NY",40.7086,-73.3283,02030202,35.8,2019-02-28,cfs,7,5,73.26,125.31,115.6
01309500,"MASSAPEQUA CREEK AT MASSAPEQUA NY",40.6889,-73.4547,02030202,9.06,2019-02-28,cfs,7,5,50.3,100.78,82.89
01310000,"BELLMORE CREEK AT BELLMORE NY",40.6786,-73.5156,02030202,,,,,0,,,
01310500,"EAST MEADOW BROOK AT FREEPORT NY",40.6656,-73.5697,02030202,,,,,0,,,
01311500,"VALLEY STREAM AT VALLEY STREAM NY",40.6636,-73.7044,02030202,7.22,2019-02-28,cfs,7,6,84.84,555.38,255.12
01312000,"HUDSON RIVER NEAR NEWCOMB NY",43.9667,-74.1317,02020001,240.57,2019-02-28,cfs,7,6,77.17,183.84,99.53
01315000,"INDIAN RIVER NEAR INDIAN LAKE NY",43.7564,-74.2672,02020001,451.71,2019-02-28,cfs,7,5,65.55,119.41,121.88
01315170,"DURGIN BROOK AT BOREAS RIVER NY",43.9398,-73.9536,02020001,,,,,0,,,
01315226,"VANDERWHACKER BROOK TRIB 1 NEAR BOREAS R",43.9485,-73.9884,02020001,,,,,0,,,
01315227,"VANDERWHACKER BROOK TRIB 2 NEAR BOREAS R",43.9482,-73.9901,02020001,,,,,0,,,
01315500,"HUDSON RIVER AT NORTH CREEK NY",43.7008,-73.9833,02020001,1311.43,2019-02-28,cfs,7,5,72.28,143.75,103.66
01317000,"SCHROON RIVER AT RIVERBANK NY",43.6094,-73.7375,02020001,,,,,0,,,
01318500,"HUDSON RIVER AT HADLEY NY",43.3189,-73.8442,02020002,2630,2019-02-28,cfs,7,6,75.11,156.55,113.08
01321000,"SACANDAGA RIVER NEAR HOPE NY",43.3528,-74.2703,02020002,832,2019-02-28,cfs,6,5,68.65,161.89,91.39
01325000,"SACANDAGA RIVER AT STEWARTS BRIDGE NR HA",43.3114,-73.8672,02020002,4027.14,2019-02-28,cfs,7,6,89.36,154.17,152.91
01327500,"GLENS FALLS FEEDER AT DUNHAM BASIN NY",43.3042,-73.5465,02020003,,,,,0,,,
01327750,"HUDSON RIVER AT FORT EDWARD NY",43.2694,-73.5958,02020003,6960,2019-02-28,cfs,7,6,78.72,147.68,128.02
01328770,"HUDSON RIVER AT THOMSON NY",43.1254,-73.5849,02020003,7177.14,2019-02-28,cfs,7,0,41.03,75.29,90.56
01329490,"BATTEN KILL BELOW MILL AT BATTENVILLE NY",43.1086,-73.4217,02020003,704.57,2019-02-28,cfs,7,5,63.92,121.33,90.21
01330000,"GLOWEGEE CREEK AT WEST MILTON NY",43.0306,-73.9272,02020003,44.33,2019-02-28,cfs,7,5,61.89,156.75,90.58
01331095,"HUDSON RIVER AT STILLWATER NY",42.9356,-73.6517,02020003,8757.14,2019-02-28,cfs,7,6,80.9,143.36,126.46
01331500,"HOOSIC RIVER AT ADAMS, MA",42.6112,-73.124,02020003,93.63,2019-02-28,cfs,7,5,69.97,135.83,102.26
01332500,"HOOSIC RIVER NEAR WILLIAMSTOWN, MA",42.7004,-73.159,02020003,221.29,2019-02-28,cfs,7,5,62.35,118.84,82.31
01333000,"GREEN RIVER AT WILLIAMSTOWN, MA",42.709,-73.1968,02020003,69.66,2019-02-28,cfs,7,5,60.96,121.3,75.33
01334000,"WALLOOMSAC RIVER NEAR NORTH BENNINGTON, ",42.9129,-73.2565,02020003,,,,,0,,,
01334500,"HOOSIC RIVER NEAR EAGLE BRIDGE NY",42.9386,-73.3769,02020003,819.57,2019-02-28,cfs,7,5,53.89,107.63,72.96
01335754,"HUDSON RIVER ABOVE LOCK 1 NEAR WATERFORD",42.8292,-73.6661,02020003,9205.71,2019-02-28,cfs,7,5,73.85,131.93,112.62
01336000,"MOHAWK RIVER BELOW DELTA DAM NEAR ROME N",43.2644,-75.4364,02020004,265.86,2019-02-28,cfs,7,5,52.28,102.4,71.76
01338000,"ORISKANY CREEK NEAR ORISKANY NY",43.1428,-75.3378,02020004,319.43,2019-02-28,cfs,7,0,34.72,45.81,63.03
01339060,"SAUQUOIT CREEK AT WHITESBORO NY",43.1114,-75.294,02020004,104.89,2019-02-28,cfs,7,0,33.75,43.09,60.79
01342602,"MOHAWK RIVER NEAR UTICA NY",43.0937,-75.1579,02020004,1294.29,2019-02-28,cfs,7,0,32.55,39.93,52.76
01342682,"MOYER CREEK NEAR FRANKFORT NY",43.0269,-75.1043,02020004,31.09,2019-02-28,cfs,7,0,40.88,54.63,54.63
01342730,"STEELE CREEK AT ILION NY",43.0066,-75.0417,02020004,40.71,2019-02-28,cfs,7,0,54.21,212.7,64.86
01342743,"FULMER CREEK NEAR MOHAWK NY",42.9852,-74.9904,02020004,,,,,0,,,
01343060,"WEST CANADA CREEK NEAR WILMURT NY",43.3661,-74.9578,02020004,1050.86,2019-02-28,cfs,7,0,83.26,356.57,192.98
01343403,"BLACK CREEK NEAR GRAY NY",43.2828,-74.9592,02020004,,,,,0,,,
01346000,"WEST CANADA CREEK AT KAST BRIDGE NY",43.0689,-74.9883,02020004,1924.29,2019-02-28,cfs,7,6,79.16,161.71,138.25
01347000,"MOHAWK RIVER NEAR LITTLE FALLS NY",43.0147,-74.7794,02020004,3261.67,2019-02-28,cfs,6,5,61.49,127.02,93.7
01348000,"EAST CANADA CREEK AT EAST CREEK NY",43.0167,-74.7408,02020004,538.29,2019-02-28,cfs,7,5,65.78,129.53,75.81
01349000,"OTSQUAGO CREEK AT FORT PLAIN NY",42.9292,-74.6329,02020004,54.4,2019-02-28,cfs,7,5,53.7,119.38,37.4
01349150,"CANAJOHARIE CREEK NEAR CANAJOHARIE NY",42.8763,-74.6029,02020004,66.8,2019-02-28,cfs,7,0,51.11,102.52,45.49
01349527,"MOHAWK R ABOVE STATE HIGHWAY 30A AT FOND",42.9504,-74.3721,02020004,5247.14,2019-02-28,cfs,7,0,45.59,81.04,81.04
01349700,"EAST KILL NEAR JEWETT CENTER NY",42.2492,-74.3028,02020005,48.61,2019-02-28,cfs,7,0,55.22,113.02,57.28
01349705,"SCHOHARIE CREEK NEAR LEXINGTON NY",42.2369,-74.3403,02020005,147.14,2019-02-28,cfs,7,0,50.5,101.52,54.19
01349711,"WEST KILL BELOW HUNTER BROOK NEAR SPRUCE",42.185,-74.2769,02020005,8.08,2019-02-28,cfs,7,0,79.18,162.9,90.48
01349810,"WEST KILL NEAR WEST KILL NY",42.2303,-74.3931,02020005,35.21,2019-02-28,cfs,7,0,57.86,114.69,56.33
01349950,"BATAVIA KILL AT RED FALLS NEAR PRATTSVIL",42.3083,-74.39,02020005,196,2019-02-28,cfs,6,0,81.05,270.57,144.71
01350000,"SCHOHARIE CREEK AT PRATTSVILLE NY",42.3194,-74.4367,02020005,331.43,2019-02-28,cfs,7,5,48.71,95.39,57.49
01350035,"BEAR KILL NEAR PRATTSVILLE NY",42.3381,-74.4517,02020005,64.71,2019-02-28,cfs,7,0,79.77,219.88,129.78
01350080,"MANOR KILL AT WEST CONESVILLE NEAR GILBO",42.3769,-74.4131,02020005,47.01,2019-02-28,cfs,7,5,71.18,150.53,105.81
01350101,"SCHOHARIE CREEK AT GILBOA NY",42.3972,-74.4506,02020005,308.29,2019-02-28,cfs,7,0,31.26,78.22,45.34
01350120,"PLATTER KILL AT GILBOA NY",42.4061,-74.4472,02020005,22,2019-02-28,cfs,4,6,77.31,195.21,125.71
01350140,"MINE KILL NEAR NORTH BLENHEIM NY",42.4289,-74.4731,02020005,31.78,2019-02-28,cfs,6,5,61.26,128.87,89.45
01350180,"SCHOHARIE CREEK AT NORTH BLENHEIM NY",42.4658,-74.4622,02020005,359,2019-02-28,cfs,7,5,63.82,235.95,72.49
01350212,"SCHOHARIE CREEK NEAR NORTH BLENHEIM NY",42.4726,-74.4411,02020005,524.86,2019-02-28,cfs,7,0,0,0,0
01350355,"SCHOHARIE CREEK AT BREAKABEEN NY",42.5369,-74.4106,02020005,451.86,2019-02-28,cfs,7,5,55.97,134.2,67.25
01350480,"LITTLE SCHOHARIE CREEK NEAR MIDDLEBURGH ",42.5799,-74.3066,02020005,,,,,0,,,
01351500,"SCHOHARIE CREEK AT BURTONSVILLE NY",42.8,-74.2628,02020005,1018.14,2019-02-28,cfs,7,5,56.85,133.57,70.38
01354083,"MOHAWK RIVER AT AMSTERDAM NY",42.934,-74.1919,02020004,6327.14,2019-02-28,cfs,7,0,44.32,73.57,73.57
01354500,"MOHAWK RIVER AT FREEMAN'S BRIDGE AT SCHE",42.8305,-73.9307,02020004,5857.14,2019-02-28,cfs,7,0,47.88,90.66,63.13
01357499,"MOHAWK RIVER DIVERSION AT CRESCENT DAM N",42.8029,-73.7026,02020004,3,2019-02-28,cfs,4,5,40.54,100,90.36
01357500,"MOHAWK RIVER AT COHOES NY",42.7854,-73.7078,02020004,6082.86,2019-02-28,cfs,7,5,60.61,123.64,84.77
01358000,"HUDSON RIVER AT GREEN ISLAND NY",42.7522,-73.6889,02020006,,,,,0,,,
01359528,"NORMANS KILL AT ALBANY NY",42.6336,-73.8043,02020006,212.29,2019-02-28,cfs,7,0,50.48,109.35,48.27
01360640,"VALATIE KILL NEAR NASSAU NY",42.5519,-73.5914,02020006,14.56,2019-02-28,cfs,6,0,66.22,131.05,75.72
01361000,"KINDERHOOK CREEK AT ROSSMAN NY",42.3311,-73.7444,02020006,530.57,2019-02-28,cfs,7,5,62.46,139.73,87.44
01362200,"ESOPUS CREEK AT ALLABEN NY",42.1169,-74.3803,02020006,119.25,2019-02-28,cfs,4,5,59.53,131,76.29
01362230,"DIVERSION FROM SCHOHARIE RESERVOIR NY",42.1145,-74.3638,02020006,137.71,2019-02-28,cfs,7,0,38.5,78.56,59.68
01362322,"MYRTLE BROOK AT STATE HWY 214 AT EDGEWOO",42.1336,-74.2315,02020006,4.06,2019-02-28,cfs,7,0,0,0,0
01362336,"STONY CLOVE CR AT JANSSEN RD AT LANESVIL",42.1279,-74.2633,02020006,11.96,2019-02-28,cfs,7,0,0,0,0
01362342,"HOLLOW TREE BROOK AT LANESVILLE NY",42.1422,-74.265,02020006,6.47,2019-02-28,cfs,7,0,82.62,254.72,150.47
01362357,"WARNER CREEK NEAR CHICHESTER NY",42.0994,-74.2946,02020006,,,,,0,,,
01362368,"OX CLOVE NEAR MOUTH AT CHICHESTER NY",42.1048,-74.3096,02020006,,,,,0,,,
01362370,"STONY CLOVE CREEK BLW OX CLOVE AT CHICHE",42.102,-74.3109,02020006,63.99,2019-02-28,cfs,7,0,61.42,161.71,79.32
01362487,"BEAVER KILL AT MOUNT TREMPER NY",42.0468,-74.2768,02020006,83.09,2019-02-28,cfs,7,0,80,279.76,223.78
01362497,"LITTLE BEAVER KILL AT BEECHFORD NEAR MT ",42.0194,-74.2664,02020006,61.4,2019-02-28,cfs,6,0,75.8,244.91,141.7
01362500,"ESOPUS CREEK AT COLDBROOK NY",42.0142,-74.2706,02020006,507.86,2019-02-28,cfs,7,5,32.03,73.92,59.73
01363382,"BUSH KILL BLW MALTBY HOLLOW BK AT WEST S",41.9656,-74.2931,02020006,43.6,2019-02-28,cfs,7,0,80.03,184.82,123.3
01363556,"ESOPUS CREEK NEAR LOMONTVILLE NY",41.8793,-74.1454,02020006,126.8,2019-02-28,cfs,5,0,41.11,44.52,42.16
01364500,"ESOPUS CREEK AT MOUNT MARION NY",42.0378,-73.9719,02020006,469.43,2019-02-28,cfs,7,5,55.58,110.45,73.65
01365000,"RONDOUT CREEK NEAR LOWES CORNERS NY",41.8664,-74.4872,02020007,137.71,2019-02-28,cfs,7,5,73.36,213.5,125.83
01365500,"CHESTNUT CREEK AT GRAHAMSVILLE NY",41.845,-74.5394,02020007,47.5,2019-02-28,cfs,7,5,64.43,159.18,97
01367500,"RONDOUT CREEK AT ROSENDALE NY",41.8431,-74.0861,02020007,950.71,2019-02-28,cfs,7,5,66.71,156.37,109.84
01368050,"WALLKILL RIVER AT OIL CITY ROAD NEAR UNI",41.2878,-74.5343,02020007,533.14,2019-02-28,cfs,7,0,0,0,0
01370520,"WALLKILL RIVER AT PHILLIPSBURG NY",41.439,-74.3657,02020007,1132,2019-02-28,cfs,7,0,0,0,0
01371500,"WALLKILL RIVER AT GARDINER NY",41.6861,-74.1653,02020007,2337.14,2019-02-28,cfs,7,5,69.46,157.07,135.79
01372500,"WAPPINGER CREEK NEAR WAPPINGERS FALLS NY",41.6531,-73.8725,02020008,465.14,2019-02-28,cfs,7,5,64.64,143.81,110.46
01374505,"EAST BRANCH CROTON RIVER AT BREWSTER NY",41.3944,-73.6069,02030101,209.57,2019-02-28,cfs,7,0,57.68,106.31,107.08
01374531,"EAST BRANCH CROTON RIVER NEAR CROTON FAL",41.3738,-73.6387,02030101,90.4,2019-02-28,cfs,7,0,42.96,91.58,72
01374559,"WEST BRANCH CROTON RIVER AT RICHARDSVILL",41.4706,-73.76,02030101,25.73,2019-02-28,cfs,7,0,54.12,105.58,89.78
01374581,"W BR CROTON RIVER BELOW DAM NEAR KENT CL",41.4497,-73.7364,02030101,51.36,2019-02-28,cfs,7,0,59.12,132.3,85.83
01374598,"HORSE POUND BROOK NEAR LAKE CARMEL NY",41.4759,-73.6895,02030101,9.21,2019-02-28,cfs,7,0,53.97,103.02,91.46
01374701,"WEST BRANCH CROTON RIVER NEAR CROTON FAL",41.358,-73.668,02030101,455.71,2019-02-28,cfs,7,0,94.11,289.47,219.22
01374781,"TITICUS RIVER BELOW JUNE ROAD AT SALEM C",41.3274,-73.5915,02030101,38.5,2019-02-28,cfs,7,0,52.81,107.72,83.23
01374821,"TITICUS RIVER AT PURDYS STATION NY",41.3272,-73.6558,02030101,92.11,2019-02-28,cfs,7,0,77.95,194.28,141.25
01374890,"CROSS RIVER NEAR CROSS RIVER NY",41.2602,-73.6019,02030101,51.2,2019-02-28,cfs,7,0,59.54,128.93,101.77
01374901,"CROSS RIVER AT KATONAH NY",41.2661,-73.6656,02030101,95.26,2019-02-28,cfs,7,0,74.12,153,127.47
01374930,"MUSCOOT RIVER AT BALDWIN PLACE NY",41.3381,-73.7687,02030101,46.19,2019-02-28,cfs,7,0,73.98,162.87,150.26
01374941,"MUSCOOT RIVER BELOW DAM AT AMAWALK NY",41.2876,-73.7536,02030101,55.92,2019-02-28,cfs,6,0,83.54,222.17,170.23
01375000,"CROTON R AT NEW CROTON DAM NR CROTON-ON-",41.225,-73.8589,02030101,1074.86,2019-02-28,cfs,7,6,83.67,233.12,201.11
01376800,"HACKENSACK RIVER AT WEST NYACK NY",41.0956,-73.9639,02030103,91.99,2019-02-28,cfs,7,6,80.41,317.21,177.07
01377000,"Hackensack River at Rivervale NJ",40.9992,-73.9892,02030103,179.71,2019-02-28,cfs,7,6,85.74,277.07,184.85
01377370,"Pascack Brook at Park Ridge NJ",41.0367,-74.0392,02030103,40.46,2019-02-28,cfs,7,0,76.61,223.41,154.07
01377500,"Pascack Brook at Westwood NJ",40.9928,-74.0211,02030103,79.9,2019-02-28,cfs,7,6,75.19,155.78,124.65
01378500,"Hackensack River at New Milford NJ",40.9483,-74.0267,02030103,239.46,2019-02-28,cfs,7,6,77.31,350.29,176.31
01379000,"Passaic River near Millington NJ",40.68,-74.5289,02030103,243,2019-02-28,cfs,7,6,78.77,179.63,145.95
01379500,"Passaic River near Chatham NJ",40.7261,-74.3897,02030103,442.71,2019-02-28,cfs,7,6,77.36,205.22,155.77
01379530,"Canoe Brook near Summit NJ",40.7444,-74.3536,02030103,39.7,2019-02-28,cfs,7,0,65.11,371.72,136.29
01379773,"Green Pond Brook at Picatinny Arsenal NJ",40.96,-74.5397,02030103,22.87,2019-02-28,cfs,7,6,76.34,143.39,127.62
01379780,"Green Pond Bk blw Picatinny Lk at Picati",40.9494,-74.5572,02030103,27.94,2019-02-28,cfs,7,6,81.08,152.68,139.42
01379845,"Rockaway River at Warren Street at Dover",40.8861,-74.56,02030103,199.57,2019-02-28,cfs,7,0,74.91,170.4,133.31
01380450,"Rockaway River at Main Street at Boonton",40.9075,-74.4192,02030103,410.43,2019-02-28,cfs,7,5,74.95,156.91,137.43
01381000,"Rockaway River below Reservoir at Boonto",40.8969,-74.3947,02030103,357.14,2019-02-28,cfs,7,6,77.05,229.14,158.59
01381400,"Whippany River near Morristown NJ",40.8122,-74.5119,02030103,57.44,2019-02-28,cfs,7,0,81.58,199.17,156.64
01381500,"Whippany River at Morristown NJ",40.8072,-74.4569,02030103,107.79,2019-02-28,cfs,7,6,79.65,177.11,147.37
01381800,"Whippany River near Pine Brook NJ",40.845,-74.3472,02030103,230,2019-02-28,cfs,7,0,75.71,149.91,141.49
01381900,"Passaic River at Pine Brook NJ",40.8625,-74.3217,02030103,1137.14,2019-02-28,cfs,7,5,70.81,172.39,130.81
01382210,"Pequannock River at Oak Ridge NJ",41.0397,-74.5017,02030103,75.16,2019-02-28,cfs,7,0,54.9,120.74,96.73
01382385,"Pequannock River at Green Pond Junction ",41.0247,-74.4083,02030103,134.29,2019-02-28,cfs,7,0,58.24,162.03,99.47
01382500,"Pequannock River at Macopin Intake Dam N",41.0183,-74.4011,02030103,148.71,2019-02-28,cfs,7,6,83.01,510.33,210.82
01382800,"Pequannock River at Riverdale NJ",40.9986,-74.2981,02030103,234.43,2019-02-28,cfs,7,0,70.7,194.18,109.9
01383500,"Wanaque River at Awosting NJ",41.1603,-74.3336,02030103,89.24,2019-02-28,cfs,7,6,76.27,155.39,123.77
01384500,"Ringwood Creek near Wanaque NJ",41.1272,-74.2658,02030103,53.27,2019-02-28,cfs,7,5,69.35,133.64,111.33
01386000,"West Brook near Wanaque NJ",41.0736,-74.3117,02030103,45.44,2019-02-28,cfs,7,5,74.55,172.84,125.91
01387000,"Wanaque River at Wanaque NJ",41.0442,-74.2931,02030103,159.43,2019-02-28,cfs,7,6,82.79,873.59,207.03
01387400,"RAMAPO RIVER AT RAMAPO NY",41.1403,-74.1686,02030103,255.71,2019-02-28,cfs,7,5,66.28,127.22,105.51
01387420,"RAMAPO RIVER AT SUFFERN NY",41.1183,-74.1603,02030103,259.14,2019-02-28,cfs,7,5,65.73,121.01,101.73
01387450,"Mahwah River near Suffern NY",41.1411,-74.1161,02030103,44.47,2019-02-28,cfs,7,5,71.89,173.44,118.18
01387500,"Ramapo River near Mahwah NJ",41.0981,-74.1628,02030103,388.86,2019-02-28,cfs,7,5,68.73,144.63,115.33
01387905,"Ramapo River at West Oakland Avenue at O",41.0275,-74.25,02030103,510.86,2019-02-28,cfs,7,0,64.61,118.92,104.06
01388000,"Ramapo River at Pompton Lakes NJ",40.9919,-74.28,02030103,513.29,2019-02-28,cfs,7,5,69.71,149.9,121.04
01388500,"Pompton River at Pompton Plains NJ",40.9697,-74.2819,02030103,988.86,2019-02-28,cfs,7,6,77.84,201.93,146.45
01389010,"Passaic River at I-80 at Singac NJ",40.8944,-74.2661,02030103,2204.29,2019-02-28,cfs,7,0,75,146.4,199.67
01389500,"Passaic River at Little Falls NJ",40.8847,-74.2261,02030103,2147.14,2019-02-28,cfs,7,5,67.65,159.98,121.52
01389550,"Peckman River at Little Falls NJ",40.8719,-74.2222,02030103,23.5,2019-02-28,cfs,7,0,40.49,83.36,83.01
01389890,"Passaic River at Dundee Dam at Clifton N",40.8858,-74.1283,02030103,2877.14,2019-02-28,cfs,7,0,80.77,158.58,172.54
01390450,"Saddle River at Upper Saddle River NJ",41.0586,-74.0956,02030103,27.91,2019-02-28,cfs,7,0,70.4,191.3,141.96
01390500,"Saddle River at Ridgewood NJ",40.985,-74.0906,02030103,58.5,2019-02-28,cfs,7,6,78.85,182.81,132.59
01391000,"Hohokus Brook at Ho-Ho-Kus NJ",40.9978,-74.1119,02030103,64.54,2019-02-28,cfs,7,6,80.44,184.4,141.41
01391102,"Saddle River below Hohokus Brook at Para",40.9553,-74.0997,02030103,145,2019-02-28,cfs,7,0,75,153.94,157.63
01391500,"Saddle River at Lodi NJ",40.8903,-74.0806,02030103,195,2019-02-28,cfs,7,6,78.82,179.72,145.72
01392500,"Second River at Belleville NJ",40.7881,-74.1717,02030103,22.84,2019-02-28,cfs,7,5,65.07,148.41,108.5
01393450,"Elizabeth River at Ursino Lake at Elizab",40.675,-74.2219,02030104,40.47,2019-02-28,cfs,7,6,75.09,212.89,131.18
01394500,"Rahway River near Springfield NJ",40.6875,-74.3117,02030104,67.91,2019-02-28,cfs,7,6,76.41,281.32,151.86
01395000,"Rahway River at Rahway NJ",40.6189,-74.2833,02030104,124.53,2019-02-28,cfs,7,6,79.3,282.13,167.42
01396500,"South Branch Raritan River near High Bri",40.6778,-74.8792,02030105,233.57,2019-02-28,cfs,7,6,75.37,156.31,138.17
01396582,"Spruce Run at Main Street at Glen Gardne",40.6914,-74.9369,02030105,49.43,2019-02-28,cfs,7,6,83.4,162.07,153.18
01396660,"Mulhockaway Creek at Van Syckel NJ",40.6475,-74.9689,02030105,29.17,2019-02-28,cfs,7,5,61.81,136.88,105.77
01396800,"Spruce Run at Clinton NJ",40.64,-74.9156,02030105,162.71,2019-02-28,cfs,7,6,85.98,416.14,252.03
01397000,"South Branch Raritan River at Stanton NJ",40.5722,-74.8681,02030105,544.71,2019-02-28,cfs,7,6,79.8,197.57,154.69
01398000,"Neshanic River at Reaville NJ",40.4733,-74.8278,02030105,90.39,2019-02-28,cfs,7,5,73.17,204.78,126.15
01398500,"North Branch Raritan River near Far Hill",40.7083,-74.6361,02030105,99.51,2019-02-28,cfs,7,6,78.29,179.78,148.08
01399100,"Middle Brook at Burnt Mills NJ",40.6494,-74.6817,02030105,28.02,2019-02-28,cfs,7,0,59.05,193.64,126.1
01399500,"Lamington (Black) River near Pottersvill",40.7275,-74.7303,02030105,138.86,2019-02-28,cfs,7,6,88.42,197.55,175.42
01399670,"South B Rockaway Creek at Whitehouse Sta",40.6194,-74.7736,02030105,38.2,2019-02-28,cfs,7,5,70.39,152.37,123.42
01400000,"North Branch Raritan River near Raritan ",40.5706,-74.6792,02030105,749.29,2019-02-28,cfs,7,6,79.28,198.75,149.08
01400500,"Raritan River at Manville NJ",40.5556,-74.5828,02030105,1778.57,2019-02-28,cfs,7,5,74.29,178.96,138.67
01401000,"Stony Brook at Princeton NJ",40.3331,-74.6819,02030105,144.67,2019-02-28,cfs,7,5,66.42,180.52,109.77
01401650,"Pike Run at Belle Mead NJ",40.4681,-74.6489,02030105,17.19,2019-02-28,cfs,7,6,75.39,189.74,115.68
01402000,"Millstone River at Blackwells Mills NJ",40.475,-74.5758,02030105,818.86,2019-02-28,cfs,7,5,70.29,183.28,120.96
01402630,"Royce Brook at Hamilton Road near Manvil",40.5061,-74.6231,02030105,24.87,2019-02-28,cfs,7,0,51.89,113.67,81.3
01403060,"Raritan River below Calco Dam at Bound B",40.5511,-74.5483,02030105,2784.29,2019-02-28,cfs,7,5,72.72,197.01,135.41
01403150,"West Branch Middle Brook near Martinsvil",40.6122,-74.5908,02030105,6.01,2019-02-28,cfs,7,6,75.46,158.58,129.81
01403400,"Green Brook at Seeley Mills NJ",40.6661,-74.4039,02030105,21.26,2019-02-28,cfs,7,6,82.27,173.83,157.6
01403540,"Stony Brook at Watchung NJ",40.6364,-74.4514,02030105,20.39,2019-02-28,cfs,7,6,75.4,157.57,125.71
01403900,"Bound Brook at Middlesex NJ",40.585,-74.5078,02030105,142.54,2019-02-28,cfs,7,0,62.32,201.98,123.76
01405030,"Lawrence Brook at Westons Mills NJ",40.4831,-74.4128,02030105,107.66,2019-02-28,cfs,7,0,77.87,233.43,144.7
01405400,"Manalapan Brook at Spotswood NJ",40.3894,-74.3906,02030105,114.3,2019-02-28,cfs,7,6,76.42,160.06,126.24
01406050,"Deep Run at Old Bridge NJ",40.415,-74.3489,02030105,49.34,2019-02-28,cfs,7,0,68.95,186.96,126.68
01407290,"Big Brook near Marlboro NJ",40.3197,-74.2142,02030104,35.39,2019-02-28,cfs,7,0,91.6,256.45,214.1
01407500,"Swimming River near Red Bank NJ",40.3197,-74.1156,02030104,127.6,2019-02-28,cfs,7,5,74.48,171.46,124.51
01407705,"Shark River near Neptune City NJ",40.1986,-74.07,02030104,37.46,2019-02-28,cfs,7,6,88.78,259.06,176.2
01407760,"Jumping Brook near Neptune City NJ",40.2033,-74.0658,02030104,16.47,2019-02-28,cfs,7,6,80.21,197.48,97
01408000,"Manasquan River at Squankum NJ",40.1614,-74.1547,02040301,133.33,2019-02-28,cfs,7,5,74.19,155.29,124.62
01408029,"Manasquan River near Allenwood NJ",40.1467,-74.1222,02040301,189.83,2019-02-28,cfs,7,0,75.27,227.12,135.94
01408120,"North Branch Metedeconk River near Lakew",40.0917,-74.1525,02040301,111.11,2019-02-28,cfs,7,6,79.97,174.02,128.9
01408500,"Toms River near Toms River NJ",39.9864,-74.2233,02040301,445.57,2019-02-28,cfs,7,7,91.78,181.02,163.63
01408900,"Cedar Creek at Western Blvd near Lanoka ",39.8792,-74.1906,02040301,156.86,2019-02-28,cfs,7,6,88.43,150.35,138.57
01409280,"Westecunk Creek at Stafford Forge NJ",39.6667,-74.3203,02040301,52.87,2019-02-28,cfs,7,0,89.97,147.64,132.27
01409400,"Mullica River near Batsto NJ",39.6744,-74.665,02040301,218.71,2019-02-28,cfs,7,6,84.15,164.98,135.71
01409810,"West Branch Wading River near Jenkins NJ",39.6881,-74.5481,02040301,290.29,2019-02-28,cfs,7,6,87.35,184.82,151.15
01410000,"Oswego River at Harrisville NJ",39.6639,-74.5234,02040301,154.86,2019-02-28,cfs,7,6,84.86,164.8,139.28
01410150,"East Branch Bass River near New Gretna N",39.6231,-74.4414,02040301,38.31,2019-02-28,cfs,7,7,91.36,218.04,188.44
01410500,"Absecon Creek at Absecon NJ",39.4303,-74.5206,02040302,75.46,2019-02-28,cfs,7,7,95.58,389.77,315.6
01410784,"Great Egg Harbor R near Sicklerville NJ",39.7336,-74.9511,02040302,30.73,2019-02-28,cfs,7,0,55.65,124.97,113.86
01410820,"Great Egg Harbor River near Blue Anchor ",39.6692,-74.9133,02040302,97.83,2019-02-28,cfs,7,0,74.7,128.96,110.77
01411000,"Great Egg Harbor River at Folsom NJ",39.5947,-74.8517,02040302,166.43,2019-02-28,cfs,7,6,86.74,162.04,142.86
01411300,"Tuckahoe River at Head of River NJ",39.3069,-74.8206,02040302,91.17,2019-02-28,cfs,7,6,84.26,194.27,149.34
01411500,"Maurice River at Norma NJ",39.4956,-75.0769,02040206,383.43,2019-02-28,cfs,7,7,94.07,193.45,176.99
01412800,"Cohansey River at Seeley NJ",39.4725,-75.2556,02040206,61.6,2019-02-28,cfs,7,0,86.02,157.3,123.77
01413088,"EAST BRANCH DELAWARE RIVER AT ROXBURY NY",42.2938,-74.5592,02040102,17.73,2019-02-28,cfs,7,0,55.26,103.02,77.7
01413398,"BUSH KILL NEAR ARKVILLE NY",42.1508,-74.6014,02040102,67.1,2019-02-28,cfs,7,0,61.13,120.68,78.04
01413408,"DRY BROOK AT ARKVILLE",42.1467,-74.6233,02040102,209.29,2019-02-28,cfs,7,0,75.41,184.79,112.24
01413500,"EAST BRANCH DELAWARE RIVER AT MARGARETVI",42.1447,-74.6536,02040102,259.14,2019-02-28,cfs,7,5,57.03,114.66,68.04
01414000,"PLATTE KILL AT DUNRAVEN NY",42.1331,-74.6956,02040102,56.4,2019-02-28,cfs,7,5,51.51,102.01,67.12
01414500,"MILL BROOK NEAR DUNRAVEN NY",42.1061,-74.7306,02040102,44.09,2019-02-28,cfs,7,5,55,117.79,67.52
01415000,"TREMPER KILL NEAR ANDES NY",42.12,-74.8186,02040102,61.34,2019-02-28,cfs,7,5,60.28,131.35,79.27
01417000,"EAST BRANCH DELAWARE RIVER AT DOWNSVILLE",42.075,-74.9764,02040102,715.29,2019-02-28,cfs,7,7,92.24,1616.11,458.7
01417500,"EAST BRANCH DELAWARE RIVER AT HARVARD NY",42.0246,-75.1193,02040102,769,2019-02-28,cfs,7,6,88.66,359.83,256.68
01420500,"BEAVER KILL AT COOKS FALLS NY",41.9464,-74.9797,02040102,410.14,2019-02-28,cfs,7,5,55.11,114.38,67.5
01421000,"EAST BRANCH DELAWARE RIVER AT FISHS EDDY",41.9736,-75.1752,02040102,1398.57,2019-02-28,cfs,7,5,73.61,214.93,117.8
01421610,"WEST BRANCH DELAWARE RIVER AT HOBART NY",42.3714,-74.6689,02040101,33.23,2019-02-28,cfs,7,0,80.32,184.61,152.78
01421618,"TOWN BROOK SOUTHEAST OF HOBART NY",42.3611,-74.6622,02040101,34.51,2019-02-28,cfs,7,0,76.09,185.84,128
01421900,"WEST BRANCH DELAWARE RIVER UPSTREAM FROM",42.2803,-74.9072,02040101,297.14,2019-02-28,cfs,7,5,67.56,148.15,91.62
01422500,"LITTLE DELAWARE RIVER NEAR DELHI NY",42.2522,-74.9017,02040101,96.17,2019-02-28,cfs,7,5,62.83,139.97,85.66
01422747,"EAST BROOK EAST OF WALTON NY",42.1727,-75.1219,02040101,46.17,2019-02-28,cfs,6,0,76.75,121.5,106.63
01423000,"WEST BRANCH DELAWARE RIVER AT WALTON NY",42.1661,-75.14,02040101,742.43,2019-02-28,cfs,7,5,62.89,143.17,91.39
01425000,"WEST BRANCH DELAWARE RIVER AT STILESVILL",42.0749,-75.3958,02040101,1568.57,2019-02-28,cfs,7,6,89.37,644.36,308.25
01426500,"WEST BRANCH DELAWARE RIVER AT HALE EDDY ",42.003,-75.3835,02040101,1685.71,2019-02-28,cfs,7,6,84.83,383.67,200.57
01427195,"Equinunk Creek near Dillontown, PA",41.8403,-75.2383,02040101,78.31,2019-02-28,cfs,7,0,0,0,0
01427207,"DELAWARE RIVER AT LORDVILLE NY",41.8673,-75.2138,02040101,3408.57,2019-02-28,cfs,7,0,76.33,214.76,150.84
01427510,"DELAWARE RIVER AT CALLICOON NY",41.7567,-75.0574,02040101,3825.71,2019-02-28,cfs,7,6,76.37,183.68,127.02
01428000,"TENMILE RIVER AT TUSTEN NY",41.5639,-75.0144,02040101,77.42,2019-02-28,cfs,6,0,65.79,178.84,92.54
01428500,"DELAWARE R ABOVE LACKAWAXEN R NEAR BARRY",41.5088,-74.9861,02040101,4430,2019-02-28,cfs,7,6,75.71,217.92,124.75
01428750,"West Branch Lackawaxen River near Aldenv",41.6745,-75.376,02040103,,,,,0,,,
01429000,"West Branch Lackawaxen River at Prompton",41.5873,-75.3268,02040103,104.7,2019-02-28,cfs,7,5,56.51,129.72,67.62
01429500,"Dyberry Creek near Honesdale, PA",41.6073,-75.2671,02040103,124.49,2019-02-28,cfs,7,5,61.31,141.02,72.04
01430000,"Lackawaxen River near Honesdale, PA",41.562,-75.248,02040103,303.57,2019-02-28,cfs,7,5,66.42,142.42,87.53
01431500,"Lackawaxen River at Hawley, PA",41.4762,-75.1721,02040103,545.86,2019-02-28,cfs,7,5,59.06,134.21,73.57
01432110,"Lackawaxen River at Rowland, PA",41.4759,-75.0363,02040103,1453.86,2019-02-28,cfs,7,0,65.37,153.08,98.54
01432495,"Shohola Creek near Walker Lake, PA",41.45,-74.9217,02040104,190.57,2019-02-28,cfs,7,0,0,0,0
01432900,"MONGAUP RIVER AT MONGAUP VALLEY NY",41.6681,-74.7806,02040104,152,2019-02-28,cfs,5,0,69.91,149.71,108.59
01433500,"MONGAUP RIVER NEAR MONGAUP NY",41.4612,-74.7588,02040104,660.71,2019-02-28,cfs,7,6,89.92,168.49,160.72
01434000,"DELAWARE RIVER AT PORT JERVIS NY",41.3706,-74.6975,02040104,7532.86,2019-02-28,cfs,7,6,75.08,201.72,128.08
01434017,"EAST BRANCH NEVERSINK RIVER NEAR CLARYVI",41.9253,-74.5403,02040104,64.9,2019-02-28,cfs,7,0,75.82,172.74,112.73
01434025,"BISCUIT BK ABOVE PIGEON BK AT FROST VALL",41.9961,-74.5002,02040104,,,,,0,,,
01434498,"WEST BRANCH NEVERSINK RIVER AT CLARYVILL",41.9203,-74.5747,02040104,27.86,2019-02-28,cfs,7,0,4.68,45.67,28.36
01435000,"NEVERSINK RIVER NEAR CLARYVILLE NY",41.89,-74.59,02040104,178.29,2019-02-28,cfs,7,5,71.36,166.28,99.94
01436000,"NEVERSINK RIVER AT NEVERSINK NY",41.82,-74.6356,02040104,238,2019-02-28,cfs,7,7,96.68,1081.82,694.69
01436690,"NEVERSINK RIVER AT BRIDGEVILLE NY",41.6381,-74.6169,02040104,360.43,2019-02-28,cfs,7,0,81.99,203.79,152.91
01437500,"NEVERSINK RIVER AT GODEFFROY NY",41.4411,-74.6019,02040104,669.86,2019-02-28,cfs,7,6,77.02,191.39,132.62
01438500,"Delaware River at Montague NJ",41.3092,-74.7953,02040104,7740,2019-02-28,cfs,7,5,70.56,169.66,112.56
01439500,"Bush Kill at Shoemakers, PA",41.0882,-75.0377,02040104,355.57,2019-02-28,cfs,7,5,66.38,145.55,107.31
01439590,"Little Bush Kill at Edgemere, PA",41.2587,-74.9955,02040104,14.61,2019-02-28,cfs,7,0,65.45,146.25,87.8
01440000,"Flat Brook near Flatbrookville NJ",41.1061,-74.9525,02040104,180.86,2019-02-28,cfs,7,5,70.38,142.22,115.22
01440400,"Brodhead Creek near Analomink, PA",41.0848,-75.2146,02040104,192.29,2019-02-28,cfs,7,5,69.42,159.95,106.18
01440485,"Swiftwater Creek at Swiftwater, PA",41.094,-75.3221,02040104,20.04,2019-02-28,cfs,7,0,80.1,134.68,114.91
01441495,"Pocono Creek ab Wigwam Run near Stroudsb",40.9909,-75.2552,02040104,127.86,2019-02-28,cfs,7,0,73.39,182.58,127.03
01442500,"Brodhead Creek at Minisink Hills, PA",40.9987,-75.1427,02040104,884.43,2019-02-28,cfs,7,5,71.37,166.16,118.76
01443280,"East Branch Paulins Kill near Lafayette ",41.0764,-74.6953,02040105,43.97,2019-02-28,cfs,7,0,89.11,180.72,166.62
01443500,"Paulins Kill at Blairstown NJ",40.9808,-74.9533,02040105,448.86,2019-02-28,cfs,7,6,81.18,187.25,155.45
01443900,"Yards Creek near Blairstown NJ",40.9806,-75.0392,02040105,18.34,2019-02-28,cfs,7,5,69.65,165.82,116.74
01445000,"Pequest River at Huntsville NJ",40.9808,-74.7764,02040105,109.09,2019-02-28,cfs,7,6,85.73,195.78,171.28
01445500,"Pequest River at Pequest NJ",40.8306,-74.9778,02040105,369,2019-02-28,cfs,7,6,83.91,183.65,160.07
01446000,"Beaver Brook near Belvidere NJ",40.8433,-75.0464,02040105,126.57,2019-02-28,cfs,7,6,79.12,180.48,148.33
01446500,"Delaware River at Belvidere NJ",40.8264,-75.0825,02040105,11257.1,2019-02-28,cfs,7,5,68.35,163.25,113.67
01446775,"Bushkill Creek ab Rt 33 bridge at Tatamy",40.749,-75.2652,02040105,180,2019-02-28,cfs,7,0,62.21,116.99,95.34
01446776,"Bushkill Creek bl SR2017 bridge at Tatam",40.7487,-75.261,02040105,,,,,0,,,
01447500,"Lehigh River at Stoddartsville, PA",41.1304,-75.6255,02040106,202.14,2019-02-28,cfs,7,5,59.15,123.47,86.79
01447680,"Tunkhannock Creek near Long Pond, PA",41.0653,-75.5214,02040106,62.24,2019-02-28,cfs,7,5,72.41,147.17,119.42
01447720,"Tobyhanna Creek near Blakeslee, PA",41.0848,-75.6055,02040106,305.86,2019-02-28,cfs,7,5,63.13,146.84,97.04
01447800,"Lehigh R bl Francis E Walter Res nr Whit",41.1048,-75.7321,02040106,709.86,2019-02-28,cfs,7,5,66.54,148.24,97.48
01449000,"Lehigh River at Lehighton, PA",40.8293,-75.7052,02040106,1492.86,2019-02-28,cfs,7,5,63.02,139.09,100.82
01449360,"Pohopoco Creek at Kresgeville, PA",40.8976,-75.5024,02040106,167.71,2019-02-28,cfs,7,5,72.02,174.75,126.37
01449800,"Pohopoco Cr bl Beltzville Dam nr Parryvi",40.8456,-75.6457,02040106,167.93,2019-02-28,cfs,7,5,60,123.74,86.27
01450500,"Aquashicola Creek at Palmerton, PA",40.8062,-75.598,02040106,260.86,2019-02-28,cfs,7,5,72.5,179.54,126.17
01451000,"Lehigh River at Walnutport, PA",40.757,-75.603,02040106,2208.57,2019-02-28,cfs,7,5,59.04,120.69,92.67
01451500,"Little Lehigh Creek near Allentown, PA",40.5823,-75.483,02040106,226,2019-02-28,cfs,7,7,90.11,200,162.88
01451650,"Little Lehigh Creek at Tenth St. Br. at ",40.5965,-75.4741,02040106,304.71,2019-02-28,cfs,7,7,93.04,192.59,193
01451800,"Jordan Creek near Schnecksville, PA",40.6618,-75.6269,02040106,251,2019-02-28,cfs,7,6,80.06,271.56,162
01452000,"Jordan Creek at Allentown, PA",40.6232,-75.4824,02040106,347.14,2019-02-28,cfs,7,6,81.43,285.22,173.29
01452500,"Monocacy Creek at Bethlehem, PA",40.6412,-75.3793,02040106,186.57,2019-02-28,cfs,7,7,93.54,290.7,234.89
01453000,"Lehigh River at Bethlehem, PA",40.6154,-75.3788,02040106,4125.71,2019-02-28,cfs,7,5,72.44,169.58,128.27
01454700,"Lehigh River at Glendon, PA",40.6693,-75.2363,02040106,4374.29,2019-02-28,cfs,7,5,68.33,149.88,118.21
01455500,"Musconetcong River at outlet of Lake Hop",40.9172,-74.6656,02040105,70.97,2019-02-28,cfs,7,6,77.08,201.62,149.5
01457000,"Musconetcong River near Bloomsbury NJ",40.6722,-75.0608,02040105,433.86,2019-02-28,cfs,7,6,76.65,150.49,140.49
01457500,"Delaware River at Riegelsville NJ",40.5947,-75.1897,02040105,,,,,0,,,
01459500,"Tohickon Creek near Pipersville, PA",40.4337,-75.1166,02040105,409.43,2019-02-28,cfs,7,5,69.26,198.62,137.56
01460378,"D&R Ca feeder US of gate at Washington C",40.2964,-74.8667,02040105,151.57,2019-02-28,cfs,7,0,0,0,0
01460440,"Delaware and Raritan Canal at Port Merce",40.3044,-74.685,02040105,140.57,2019-02-28,cfs,7,0,66.12,106.27,107.92
01463500,"Delaware River at Trenton NJ",40.2217,-74.7781,02040105,18714.3,2019-02-28,cfs,7,5,68.74,163.5,122.17
01463620,"Assunpink Creek near Clarksville NJ",40.2697,-74.6719,02040105,83.16,2019-02-28,cfs,7,0,70.61,161.38,102.82
01463740,"Shabakunk C at Sylva Lake Dam at Ewingvi",40.2711,-74.7733,02040105,7.32,2019-02-28,cfs,7,0,51.37,125.13,63.65
01464000,"Assunpink Creek at Trenton NJ",40.2242,-74.7492,02040105,282.71,2019-02-28,cfs,7,6,76.46,178.77,133.28
01464500,"Crosswicks Creek at Extonville NJ",40.1372,-74.6,02040201,239,2019-02-28,cfs,7,6,75.73,162.74,114.58
01464645,"NB Neshaminy Cr bl Lake Galena nr New Br",40.3123,-75.2066,02040201,49.93,2019-02-28,cfs,7,6,81.31,172.41,139.55
01464720,"NB Neshaminy Creek at Chalfont, PA",40.2882,-75.2038,02040201,48.83,2019-02-28,cfs,7,0,61.52,142.32,96.03
01464750,"Neshaminy Creek near Rushland, PA",40.2604,-75.0349,02040201,270.14,2019-02-28,cfs,7,0,74.06,202.12,138.91
01464907,"Little Neshaminy C at Valley Road nr Nes",40.2293,-75.1196,02040201,80.83,2019-02-28,cfs,7,0,67.11,181.93,119.2
01465200,"Neshaminy Creek near Penns Park, PA",40.2518,-75.0087,02040201,437.71,2019-02-28,cfs,7,0,0,0,0
01465500,"Neshaminy Creek near Langhorne, PA",40.174,-74.9568,02040201,619.43,2019-02-28,cfs,7,0,50.09,100.67,94.61
01465798,"Poquessing Creek at Grant Ave. at Philad",40.0571,-74.9852,02040202,22.85,2019-02-28,cfs,6,5,42.39,91.91,57.38
01465850,"South Branch Rancocas Creek at Vincentow",39.94,-74.7631,02040202,201.71,2019-02-28,cfs,7,6,84.51,177.94,153.92
01466500,"McDonalds Branch in Byrne State Forest N",39.885,-74.5053,02040202,3.59,2019-02-28,cfs,7,6,82.58,158.15,142.46
01466900,"Greenwood Branch at New Lisbon NJ",39.9561,-74.6278,02040202,193,2019-02-28,cfs,7,0,79.77,165.47,135.73
01467000,"North Branch Rancocas Creek at Pemberton",39.97,-74.6844,02040202,351.86,2019-02-28,cfs,7,6,88.68,171.4,149.54
01467042,"Pennypack Creek at Pine Road, at Philade",40.0898,-75.0691,02040202,95.8,2019-02-28,cfs,7,0,66.68,140.33,98.54
01467048,"Pennypack Cr at Lower Rhawn St Bdg, Phil",40.0501,-75.0327,02040202,119.17,2019-02-28,cfs,7,6,75.92,153.33,109.79
01467081,"South Branch Pennsauken Creek at Cherry ",39.9417,-75.0011,02040202,20.81,2019-02-28,cfs,7,5,62.49,125.66,87.81
01467086,"Tacony Creek ab Adams Avenue, Philadelph",40.0465,-75.1107,02040202,34.3,2019-02-28,cfs,7,6,76.55,151.03,115.49
01467087,"Frankford Creek at Castor Ave, Philadelp",40.0159,-75.0968,02040202,41.27,2019-02-28,cfs,7,6,76.68,161.27,116.52
01467150,"Cooper River at Haddonfield NJ",39.9031,-75.0214,02040202,38.13,2019-02-28,cfs,7,5,70.82,123.44,93.48
01468500,"Schuylkill River at Landingville, PA",40.6293,-76.1247,02040203,505.86,2019-02-28,cfs,7,6,76.82,188.05,137.73
01469500,"Little Schuylkill River at Tamaqua, PA",40.807,-75.9719,02040203,140.86,2019-02-28,cfs,7,5,71.31,169.98,122.24
01470500,"Schuylkill River at Berne, PA",40.5226,-75.9983,02040203,1267.14,2019-02-28,cfs,7,5,70.94,165.84,125.16
01470755,"Maiden Creek near Virginville, PA",40.5254,-75.8749,02040203,651,2019-02-28,cfs,7,0,63.18,194.25,119.65
01470779,"Tulpehocken Creek near Bernville, PA",40.4134,-76.1716,02040203,259.14,2019-02-28,cfs,7,6,87.74,195.78,165.15
01470960,"Tulpehocken Cr at Blue Marsh Damsite nea",40.3706,-76.0252,02040203,614.57,2019-02-28,cfs,7,6,78.82,197.93,149.68
01471000,"Tulpehocken Creek near Reading, PA",40.369,-75.9791,02040203,746.43,2019-02-28,cfs,7,6,81.7,201.04,161.6
01471510,"Schuylkill River at Reading, PA",40.3316,-75.9387,02040203,3207.14,2019-02-28,cfs,7,6,76.01,201.89,137.16
01471875,"Manatawny Creek near Spangsville, PA",40.3395,-75.7421,02040203,168.29,2019-02-28,cfs,7,0,72.11,159.9,134.4
01472000,"Schuylkill River at Pottstown, PA",40.2418,-75.6516,02040203,4194.29,2019-02-28,cfs,7,6,80.64,183.44,146.97
01472157,"French Creek near Phoenixville, PA",40.1515,-75.6013,02040203,163.67,2019-02-28,cfs,6,5,71.46,155.34,115.2
01472198,"Perkiomen Creek at East Greenville, PA",40.394,-75.5155,02040203,129.01,2019-02-28,cfs,7,6,77.53,180.61,147.37
01472199,"West Branch Perkiomen Creek at Hillegass",40.374,-75.5224,02040203,80.34,2019-02-28,cfs,7,6,76.98,175.76,146.87
01472620,"East Branch Perkiomen Creek near Dublin,",40.404,-75.2343,02040203,24.4,2019-02-28,cfs,7,0,58.54,108.49,96.86
01472810,"East Branch Perkiomen Creek near Schwenk",40.2587,-75.4288,02040203,195.34,2019-02-28,cfs,7,0,62.33,180.04,114.86
01473000,"Perkiomen Creek at Graterford, PA",40.2295,-75.4516,02040203,967.71,2019-02-28,cfs,7,5,68.64,211.46,125.03
01473169,"Valley Creek at PA Turnpike Br near Vall",40.0793,-75.4607,02040203,53.69,2019-02-28,cfs,7,6,84.04,163.04,143.56
01473500,"Schuylkill River at Norristown, PA",40.1112,-75.3468,02040203,7026,2019-02-28,cfs,5,0,80.6,212.08,167.25
01473900,"Wissahickon Creek at Fort Washington, PA",40.124,-75.2199,02040203,110.41,2019-02-28,cfs,7,0,75.18,196.14,114.17
01474000,"Wissahickon Creek at Mouth, Philadelphia",40.0154,-75.2068,02040203,201.71,2019-02-28,cfs,7,6,82.2,189.97,142.85
01474500,"Schuylkill River at Philadelphia, PA",39.9679,-75.1885,02040203,6544.29,2019-02-28,cfs,7,6,80.87,203.42,152.84
01475001,"Mantua Creek at East Holly Avenue at Pit",39.7389,-75.1144,02040202,15.76,2019-02-28,cfs,7,6,78.52,129.82,117.35
01475510,"Darby Creek near Darby, PA",39.929,-75.2724,02040202,,,,,0,,,
01475530,"Cobbs Cr at U.S. Hghwy No. 1 at Philadel",39.9748,-75.2799,02040202,8.51,2019-02-28,cfs,7,5,62.12,130.12,95.51
01475548,"Cobbs Creek at Mt. Moriah Cemetery, Phil",39.9328,-75.2376,02040202,29.33,2019-02-28,cfs,7,0,64.13,127.63,104.08
01475850,"Crum Creek near Newtown Square, PA",39.9765,-75.4366,02040202,43.29,2019-02-28,cfs,7,6,81.9,162.93,140.55
01476480,"Ridley Creek at Media, PA",39.9162,-75.4033,02040202,86.07,2019-02-28,cfs,7,6,82.48,187.88,147.61
01477000,"Chester Creek near Chester, PA",39.869,-75.4082,02040202,194,2019-02-28,cfs,7,6,83.49,187.06,145.46
01477120,"Raccoon Creek near Swedesboro NJ",39.7406,-75.2592,02040202,63.8,2019-02-28,cfs,7,6,76.56,154.29,107.17
01477800,"SHELLPOT CREEK AT WILMINGTON, DE",39.761,-75.5187,02040205,12.42,2019-02-28,cfs,7,5,68.34,142.11,82.09
01478000,"CHRISTINA RIVER AT COOCHS BRIDGE, DE",39.6374,-75.7279,02040205,45.41,2019-02-28,cfs,7,5,71.21,177.8,92.54
01478120,"East Branch White Clay Creek at Avondale",39.8284,-75.7808,02040205,27.26,2019-02-28,cfs,7,0,64.26,160.92,117.96
01478245,"White Clay Creek near Strickersville, PA",39.7475,-75.7708,02040205,147.71,2019-02-28,cfs,7,0,74,152.07,117.57
01478650,"WHITE CLAY CREEK AT NEWARK, DE",39.6892,-75.7487,02040205,179.14,2019-02-28,cfs,7,0,79.58,179.14,132.68
01479000,"WHITE CLAY CREEK NEAR NEWARK, DE",39.6992,-75.675,02040205,211.14,2019-02-28,cfs,7,6,78.63,169.3,114.97
01479820,"Red Clay Creek near Kennett Square, PA",39.8168,-75.6916,02040205,67.37,2019-02-28,cfs,7,6,76.59,155.41,117.33
01480000,"RED CLAY CREEK AT WOODDALE, DE",39.7628,-75.6365,02040205,117.84,2019-02-28,cfs,7,6,77.85,175.51,121.84
01480015,"RED CLAY CREEK NEAR STANTON, DE",39.7158,-75.6399,02040205,130.14,2019-02-28,cfs,7,0,80.03,167.15,127.28
01480300,"West Branch Brandywine Creek near Honey ",40.0729,-75.8608,02040205,57.27,2019-02-28,cfs,7,6,77.88,219.09,129.1
01480400,"Birch Run near Wagontown, PA",40.0273,-75.8449,02040205,15.11,2019-02-28,cfs,7,0,78.89,200.66,140.43
01480500,"West Branch Brandywine Creek at Coatesvi",39.9857,-75.8274,02040205,133.57,2019-02-28,cfs,7,6,77.99,185.36,136.2
01480617,"West Branch Brandywine Creek at Modena, ",39.9618,-75.8013,02040205,163.29,2019-02-28,cfs,7,6,79.39,180.87,130.32
01480638,"Broad Run at Northbrook, PA",39.9304,-75.6847,02040205,18.54,2019-02-28,cfs,7,0,76.02,170.4,130.38
01480675,"Marsh Creek near Glenmoore, PA",40.0979,-75.7416,02040205,30.63,2019-02-28,cfs,7,6,82.47,213.75,159.61
01480685,"Marsh Creek near Downingtown, PA",40.0554,-75.7163,02040205,57.29,2019-02-28,cfs,7,6,75.79,204.75,165.05
01480700,"East Branch Brandywine Creek near Downin",40.0348,-75.7085,02040205,194.86,2019-02-28,cfs,7,6,83.49,194.16,151.65
01480870,"East Branch Brandywine Creek below Downi",39.9687,-75.6733,02040205,269.14,2019-02-28,cfs,7,6,80.21,184.43,129.64
01481000,"Brandywine Creek at Chadds Ford, PA",39.8698,-75.5933,02040205,877,2019-02-28,cfs,7,6,81.71,171.24,133.66
01481500,"BRANDYWINE CREEK AT WILMINGTON, DE",39.7695,-75.5767,02040205,1007.29,2019-02-28,cfs,7,6,82.89,174.66,133.23
01482500,"Salem River at Woodstown NJ",39.6439,-75.3303,02040206,34.43,2019-02-28,cfs,7,6,75.03,172.15,111.6
01483155,"SILVER LAKE TRIBUTARY AT MIDDLETOWN, DE",39.431,-75.7095,02040205,6.66,2019-02-28,cfs,7,0,81.81,209.43,157.82
01483200,"BLACKBIRD CREEK AT BLACKBIRD, DE",39.3663,-75.6694,02040205,11.17,2019-02-28,cfs,7,6,79.43,180.45,122.34
01483500,"LEIPSIC RIVER NEAR CHESWOLD, DE",39.2329,-75.6323,02040207,32.16,2019-02-28,cfs,7,0,94.44,264.91,246.63
01483700,"ST JONES RIVER AT DOVER, DE",39.1637,-75.5191,02040207,123.57,2019-02-28,cfs,7,6,83.28,237.95,162.51
01484000,"MURDERKILL RIVER NEAR FELTON, DE",38.976,-75.5669,02040207,43.1,2019-02-28,cfs,7,6,80.29,205.92,119.16
01484100,"BEAVERDAM BRANCH AT HOUSTON, DE",38.9058,-75.5127,02040207,9.43,2019-02-28,cfs,7,6,82.65,212.87,144.19
01484525,"MILLSBORO POND OUTLET AT MILLSBORO, DE",38.5946,-75.291,02060010,219,2019-02-28,cfs,7,0,82.41,177.95,148.92
01484695,"BEAVERDAM DITCH NEAR MILLVILLE, DE",38.5214,-75.1334,02060010,14.4,2019-02-28,cfs,7,0,86.56,322.87,231.14
01485000,"POCOMOKE RIVER NEAR WILLARDS, MD",38.3889,-75.3244,02060009,302.86,2019-02-28,cfs,7,6,88.37,329.2,210.64
01485500,"NASSAWANGO CREEK NEAR SNOW HILL, MD",38.2289,-75.4714,02060009,299.29,2019-02-28,cfs,7,7,93.26,412.81,277.97
01486000,"MANOKIN BRANCH NEAR PRINCESS ANNE, MD",38.2139,-75.6714,02060009,24.04,2019-02-28,cfs,7,7,91.1,346.4,230.71
01487000,"NANTICOKE RIVER NEAR BRIDGEVILLE, DE",38.7283,-75.5619,02060008,200.57,2019-02-28,cfs,7,6,81.63,161.57,124.39
01488500,"MARSHYHOPE CREEK NEAR ADAMSVILLE, DE",38.8497,-75.6731,02060008,141.99,2019-02-28,cfs,7,6,82.54,198.39,133.09
01490000,"CHICAMACOMICO RIVER NEAR SALEM, MD",38.5117,-75.8799,02060007,52.31,2019-02-28,cfs,7,6,83.34,228.83,152.95
01491000,"CHOPTANK RIVER NEAR GREENSBORO, MD",38.9972,-75.7858,02060005,459.29,2019-02-28,cfs,7,6,84.48,261.6,163.55
01491500,"TUCKAHOE CREEK NEAR RUTHSBURG, MD",38.9668,-75.9431,02060005,313.29,2019-02-28,cfs,7,0,82.43,302.55,170.01
01492500,"SALLIE HARRIS CREEK NEAR CARMICHAEL, MD",38.9649,-76.1088,02060002,30.69,2019-02-28,cfs,7,0,84.3,343.67,212.09
01493000,"UNICORN BRANCH NEAR MILLINGTON, MD",39.2499,-75.8615,02060002,66.57,2019-02-28,cfs,7,6,84.32,190.96,153.21
01493112,"CHESTERVILLE BRANCH NEAR CRUMPTON, MD",39.2571,-75.9401,02060002,15.23,2019-02-28,cfs,7,0,86.2,173.07,171.32
01493500,"MORGAN CREEK NEAR KENNEDYVILLE, MD",39.28,-76.0146,02060002,23.47,2019-02-28,cfs,7,6,82.14,239.73,134.27
01494850,"East Branch Big Elk Creek at Forestville",39.8223,-75.8969,02060002,22.97,2019-02-28,cfs,7,0,66.33,172.84,127.12
01495000,"BIG ELK CREEK AT ELK MILLS, MD",39.6676,-75.8256,02060002,138.29,2019-02-28,cfs,7,6,80.48,193.6,127.61
01500000,"OULEOUT CREEK AT EAST SIDNEY NY",42.3333,-75.235,02050101,108.59,2019-02-28,cfs,7,5,36.55,70.91,44.49
01500500,"SUSQUEHANNA RIVER AT UNADILLA NY",42.3214,-75.3167,02050101,2111.43,2019-02-28,cfs,7,5,59.72,143.59,92.06
01502500,"UNADILLA RIVER AT ROCKDALE NY",42.3778,-75.4061,02050101,,,,,0,,,
01502632,"SUSQUEHANNA RIVER AT BAINBRIDGE NY",42.2914,-75.4764,02050101,,,,,0,,,
01502731,"SUSQUEHANNA RIVER AT WINDSOR NY",42.0747,-75.6378,02050101,,,,,0,,,
01503000,"SUSQUEHANNA RIVER AT CONKLIN NY",42.0353,-75.8031,02050101,3940,2019-02-28,cfs,5,5,57.4,119.81,78.95
01505000,"CHENANGO RIVER AT SHERBURNE NY",42.6786,-75.5106,02050102,442.75,2019-02-28,cfs,4,5,56.94,118.56,80.72
01505810,"CHENANGO RIVER AT OXFORD NY",42.4417,-75.5964,02050102,,,,,0,,,
01507000,"CHENANGO RIVER AT GREENE NY",42.3244,-75.7714,02050102,1024.2,2019-02-28,cfs,5,5,63.39,159.32,84.01
01509000,"TIOUGHNIOGA RIVER AT CORTLAND NY",42.6028,-76.1594,02050102,551.75,2019-02-28,cfs,4,5,57.16,116.21,78.43
01510000,"OTSELIC RIVER AT CINCINNATUS NY",42.5411,-75.8997,02050102,201.25,2019-02-28,cfs,4,5,45.9,80.91,52.22
01512500,"CHENANGO RIVER NEAR CHENANGO FORKS NY",42.2181,-75.8483,02050102,,,,,0,,,
01513500,"SUSQUEHANNA RIVER AT VESTAL NY",42.0908,-76.0561,02050103,6982,2019-02-28,cfs,5,5,57.62,137.95,76.27
01513550,"Choconut Creek near Choconut, PA",41.9628,-76.0014,02050103,24.24,2019-02-28,cfs,7,0,25,26.51,28.06
01513831,"SUSQUEHANNA RIVER AT OWEGO NY",42.0972,-76.2664,02050103,7071.43,2019-02-28,cfs,7,0,60.53,132.67,76.96
01514000,"OWEGO CREEK NEAR OWEGO NY",42.1292,-76.2706,02050103,263.25,2019-02-28,cfs,4,0,0,0,0
01514850,"Wappasening Creek near Windham Center, P",41.9742,-76.3322,02050103,60.87,2019-02-28,cfs,7,0,33.33,27.57,27.57
01515000,"SUSQUEHANNA RIVER NEAR WAVERLY NY",41.9847,-76.5011,02050103,,,,,0,,,
01516350,"Tioga River near Mansfield, PA",41.797,-77.0802,02050104,156.71,2019-02-28,cfs,7,5,47.87,97.08,58.61
01516500,"Corey Creek near Mainesburg, PA",41.7909,-77.0147,02050104,,,,,0,,,
01518000,"Tioga River at Tioga, PA",41.9084,-77.1294,02050104,426.71,2019-02-28,cfs,7,5,57.11,125.98,65.51
01518420,"Crooked Cr bl Catlin Hollow at Middlebur",41.8426,-77.2733,02050104,70.99,2019-02-28,cfs,7,0,0,0,0
01518700,"Tioga River at Tioga Junction, PA",41.9526,-77.1152,02050104,474.14,2019-02-28,cfs,7,5,57.69,127.65,60.66
01518862,"Cowanesque River at Westfield, PA",41.9231,-77.5319,02050104,100.95,2019-02-28,cfs,4,5,51.43,106.7,65.04
01519200,"Cowanesque River at Elkland, PA",41.9876,-77.3022,02050104,260,2019-02-28,cfs,4,0,0,0,0
01520000,"Cowanesque River near Lawrenceville, PA",41.9967,-77.14,02050104,283.57,2019-02-28,cfs,7,5,61.55,122.68,61.31
01520500,"TIOGA RIVER AT LINDLEY NY",42.0286,-77.1322,02050104,823,2019-02-28,cfs,7,5,58.16,129.69,68.82
01521500,"CANISTEO RIVER AT ARKPORT NY",42.3958,-77.7114,02050104,,,,,0,,,
01523500,"CANACADEA CREEK NEAR HORNELL NY",42.3347,-77.6831,02050104,63.14,2019-02-28,cfs,7,5,55.59,119.45,60.14
01524500,"CANISTEO RIVER BELOW CANACADEA CREEK AT ",42.3139,-77.6511,02050104,225.29,2019-02-28,cfs,7,5,68.88,169.58,94.35
01525500,"CANISTEO RIVER AT WEST CAMERON NY",42.2222,-77.4178,02050104,347.25,2019-02-28,cfs,4,5,57.37,144.17,72.95
01525981,"TUSCARORA CREEK ABOVE SOUTH ADDISON NY",42.0722,-77.2989,02050104,117.2,2019-02-28,cfs,4,0,75.21,264.86,138.83
01526500,"TIOGA RIVER NEAR ERWINS NY",42.1211,-77.1292,02050104,1408.57,2019-02-28,cfs,7,5,62.07,124.35,68.91
01527500,"COHOCTON RIVER AT AVOCA NY",42.3978,-77.4175,02050105,,,,,0,,,
01529500,"COHOCTON RIVER NEAR CAMPBELL NY",42.2525,-77.2167,02050105,504.25,2019-02-28,cfs,4,5,58.63,121.23,76.9
01529950,"CHEMUNG RIVER AT CORNING NY",42.1464,-77.0575,02050105,2181.67,2019-02-28,cfs,6,5,62.26,122.91,74.81
01530332,"CHEMUNG RIVER AT ELMIRA NY",42.0864,-76.8011,02050105,2222.5,2019-02-28,cfs,4,0,57.91,129.59,77.57
01531000,"CHEMUNG RIVER AT CHEMUNG NY",42.0022,-76.6347,02050105,2733.33,2019-02-28,cfs,6,5,58.8,124.08,70.87
01531250,"NB Sugar Creek Trib near Columbia Cross ",41.8404,-76.8269,02050106,,,,,0,,,
01531325,"Sugar Creek at West Burlington, PA",41.7606,-76.675,02050106,99.01,2019-02-28,cfs,7,0,47.19,83.62,60.2
01531500,"Susquehanna River at Towanda, PA",41.7654,-76.4408,02050106,10592.9,2019-02-28,cfs,7,5,53.97,110.94,68.6
01531908,"Towanda Creek near Franklindale, PA",41.6978,-76.5786,02050106,147.59,2019-02-28,cfs,7,0,42.94,72.3,64.6
01532000,"Towanda Creek near Monroeton, PA",41.7076,-76.4849,02050106,285.57,2019-02-28,cfs,7,5,55.45,117.65,63.77
01533400,"Susquehanna River at Meshoppen, PA",41.6073,-76.0502,02050106,12857.1,2019-02-28,cfs,7,5,51.45,105.63,73.36
01534000,"Tunkhannock Creek near Tunkhannock, PA",41.5584,-75.8946,02050106,619.43,2019-02-28,cfs,7,5,52.44,110.3,70.1
01534300,"Lackawanna River near Forest City, PA",41.6798,-75.4718,02050107,59.75,2019-02-28,cfs,6,5,53.27,110.1,62.19
01534500,"Lackawanna River at Archbald, PA",41.5045,-75.5421,02050107,187.67,2019-02-28,cfs,6,5,56.67,121.86,68.54
01534860,"Lackawanna R bl Leggetts Creek at Scrant",41.4412,-75.6421,02050107,239.29,2019-02-28,cfs,7,0,55.3,108.59,55.08
01536000,"Lackawanna River at Old Forge, PA",41.3592,-75.7444,02050107,433.57,2019-02-28,cfs,7,5,54.63,128.55,67.29
01536500,"Susquehanna River at Wilkes-Barre, PA",41.2509,-75.8808,02050107,14571.4,2019-02-28,cfs,7,5,57.56,117.15,75.74
01538000,"Wapwallopen Creek near Wapwallopen, PA",41.0595,-76.0938,02050107,105.29,2019-02-28,cfs,7,5,62.29,139.98,102.3
01538700,"Susquehanna River at Bloomsburg, PA",40.994,-76.4399,02050107,16714.3,2019-02-28,cfs,7,0,34.25,44,57.54
01539000,"Fishing Creek near Bloomsburg, PA",41.0781,-76.4313,02050107,593.14,2019-02-28,cfs,7,5,56.35,122.41,82.57
01540500,"Susquehanna River at Danville, PA",40.9581,-76.6191,02050107,18714.3,2019-02-28,cfs,7,5,58.27,131.77,84.5
01541000,"West Branch Susquehanna River at Bower, ",40.897,-78.677,02050201,1169.43,2019-02-28,cfs,7,5,71.37,171.65,118.55
01541200,"WB Susquehanna River near Curwensville, ",40.9614,-78.5192,02050201,1485.71,2019-02-28,cfs,7,5,71.03,204.12,124.95
01541303,"West Branch Susquehanna River at Hyde, P",41.0045,-78.4567,02050201,1881.43,2019-02-28,cfs,7,5,70.39,177.19,121.45
01541500,"Clearfield Creek at Dimeling, PA",40.9717,-78.4059,02050201,1080.86,2019-02-28,cfs,7,5,69.08,171.68,104.17
01542500,"WB Susquehanna River at Karthaus, PA",41.1176,-78.1089,02050201,4227.14,2019-02-28,cfs,7,5,68.16,163.44,104.21
01542810,"Waldy Run near Emporium, PA",41.579,-78.2925,02050202,8.06,2019-02-28,cfs,7,5,57.52,148.71,59.05
01543000,"Driftwood Br Sinnemahoning Cr at Sterlin",41.4134,-78.197,02050202,428.29,2019-02-28,cfs,7,5,50.9,104.39,58.29
01543500,"Sinnemahoning Creek at Sinnemahoning, PA",41.3173,-78.1031,02050202,1116,2019-02-28,cfs,7,5,48.1,92.45,57.51
01543693,"East Fork Sinnemahoning at Wharton Towns",41.5414,-77.9803,02050202,46.59,2019-02-28,cfs,7,0,33.79,64.79,47.8
01543700,"First Fork Sinnemahoning Creek at Wharto",41.519,-78.0275,02050202,193.86,2019-02-28,cfs,7,0,0,0,0
01544000,"First Fork Sinnemahoning Cr near Sinnema",41.4017,-78.0242,02050202,303.57,2019-02-28,cfs,7,5,49.37,99.21,48.28
01544500,"Kettle Creek at Cross Fork, PA",41.4759,-77.8258,02050203,151.14,2019-02-28,cfs,7,5,40.77,85.05,45.28
01545000,"Kettle Creek near Westport, PA",41.3195,-77.8739,02050203,271.86,2019-02-28,cfs,7,5,50.46,101.66,47.95
01545500,"West Branch Susquehanna River at Renovo,",41.3237,-77.75,02050203,6328.57,2019-02-28,cfs,7,5,58.16,125.55,81.13
01545600,"Young Womans Creek near Renovo, PA",41.3895,-77.6908,02050203,60.39,2019-02-28,cfs,7,5,51.85,103.11,58.83
01545800,"WB Susquehanna River at Lock Haven, PA",41.1381,-77.4419,02050203,7098.57,2019-02-28,cfs,7,0,0,0,0
01546400,"Spring Creek at Houserville, PA",40.8337,-77.8275,02050204,144.29,2019-02-28,cfs,7,6,87.39,225.77,175.81
01546500,"Spring Creek near Axemann, PA",40.8898,-77.7942,02050204,206.71,2019-02-28,cfs,7,6,83.9,200.26,163.05
01547100,"Spring Creek at Milesburg, PA",40.9317,-77.7856,02050204,454.29,2019-02-28,cfs,7,6,83.47,193.43,157.36
01547200,"Bald Eagle Creek bl Spring Creek at Mile",40.9431,-77.7864,02050204,702.43,2019-02-28,cfs,7,5,68.22,173.32,111.19
01547500,"Bald Eagle Creek at Blanchard, PA",41.0517,-77.6044,02050204,1264.29,2019-02-28,cfs,7,6,77.46,164.03,138.6
01547700,"Marsh Creek at Blanchard, PA",41.0595,-77.6058,02050204,155.29,2019-02-28,cfs,7,5,74.73,261.61,151.22
01547950,"Beech Creek at Monument, PA",41.1117,-77.7022,02050204,296.43,2019-02-28,cfs,7,5,60.52,116.81,73.97
01548005,"Bald Eagle Creek near Beech Creek Statio",41.0809,-77.5494,02050204,1628.57,2019-02-28,cfs,7,0,0,0,0
01548500,"Pine Creek at Cedar Run, PA",41.5217,-77.4475,02050205,748.25,2019-02-28,cfs,4,5,49.53,98.62,62.37
01549500,"Blockhouse Creek near English Center, PA",41.4737,-77.2308,02050205,42.48,2019-02-28,cfs,6,5,43.14,87.9,50.8
01549700,"Pine Creek bl L Pine Creek near Watervil",41.2737,-77.3241,02050205,1234,2019-02-28,cfs,5,5,58.55,111.83,60.12
01549760,"WB Susquehanna River at Jersey Shore, PA",41.2023,-77.2511,02050206,10770,2019-02-28,cfs,7,0,51.49,106.12,98.95
01550000,"Lycoming Creek near Trout Run, PA",41.4181,-77.033,02050206,259.57,2019-02-28,cfs,7,5,55.9,120.49,65.78
01551500,"WB Susquehanna River at Williamsport, PA",41.2362,-76.9966,02050206,11900,2019-02-28,cfs,7,5,63.39,134.91,89.38
01552000,"Loyalsock Creek at Loyalsockville, PA",41.3251,-76.9125,02050206,763.57,2019-02-28,cfs,7,5,53.01,115.77,73.58
01552500,"Muncy Creek near Sonestown, PA",41.357,-76.5347,02050206,37.26,2019-02-28,cfs,7,5,48.29,94.79,57.7
01553025,"West Branch Susquehanna River at Allenwo",41.1081,-76.89,02050206,13485.7,2019-02-28,cfs,7,0,34.91,66.36,66.36
01553500,"West Branch Susquehanna River at Lewisbu",40.9676,-76.8764,02050206,15314.3,2019-02-28,cfs,7,5,62.36,145.05,92.47
01553700,"Chillisquaque Creek at Washingtonville, ",41.0618,-76.6802,02050206,152.69,2019-02-28,cfs,7,6,76.01,240.72,139.48
01553850,"Chillisquaque Creek near Potts Grove, PA",40.9744,-76.8,02050206,344.86,2019-02-28,cfs,7,0,62.43,168.87,119.31
01554000,"Susquehanna River at Sunbury, PA",40.8345,-76.8266,02050301,34828.6,2019-02-28,cfs,7,5,57.41,133.15,84.23
01555000,"Penns Creek at Penns Creek, PA",40.8667,-77.0483,02050301,745,2019-02-28,cfs,7,5,66.77,156.28,109.21
01555500,"East Mahantango Creek near Dalmatia, PA",40.6112,-76.9119,02050301,545.71,2019-02-28,cfs,7,5,74.81,209.2,139.49
01556000,"Frankstown Br Juniata River at Williamsb",40.4631,-78.1997,02050302,1017.43,2019-02-28,cfs,7,6,77.27,198.05,141.27
01557500,"Bald Eagle Creek at Tyrone, PA",40.6837,-78.2336,02050302,99.54,2019-02-28,cfs,7,5,56.65,115.56,77.92
01558000,"Little Juniata River at Spruce Creek, PA",40.6126,-78.1406,02050302,652.86,2019-02-28,cfs,7,5,66.72,152.87,106.59
01559000,"Juniata River at Huntingdon, PA",40.4848,-78.0189,02050302,2381.43,2019-02-28,cfs,7,6,75.12,176.46,130.68
01560000,"Dunning Creek at Belden, PA",40.0717,-78.4925,02050303,719,2019-02-28,cfs,7,6,80.66,231.83,158.04
01562000,"Raystown Branch Juniata River at Saxton,",40.2159,-78.2653,02050303,2865.71,2019-02-28,cfs,7,6,81.21,236,154.52
01563200,"Rays Br Juniata R bl Rays Dam nr Hunting",40.429,-77.9911,02050303,3560,2019-02-28,cfs,7,6,79.5,328.11,182.78
01563500,"Juniata River at Mapleton Depot, PA",40.3923,-77.935,02050304,6572.86,2019-02-28,cfs,7,6,76.77,204.26,148.25
01564500,"Aughwick Creek near Three Springs, PA",40.2126,-77.9253,02050304,705.71,2019-02-28,cfs,7,6,79.17,225.68,152.29
01564512,"Aughwick Creek near Shirleysburg, PA",40.282,-77.8906,02050304,1017.14,2019-02-28,cfs,7,0,0,0,0
01564895,"Juniata River at Lewistown, PA",40.5945,-77.5825,02050304,,,,,0,,,
01565000,"Kishacoquillas Creek at Reedsville, PA",40.6548,-77.5831,02050304,417.71,2019-02-28,cfs,7,6,77.66,186.54,137.33
01566000,"Tuscarora Creek near Port Royal, PA",40.5154,-77.4192,02050304,660.71,2019-02-28,cfs,7,5,74.08,184.66,134.7
01567000,"Juniata River at Newport, PA",40.4784,-77.1292,02050304,11012.9,2019-02-28,cfs,7,6,77.22,227.5,145.56
01567500,"Bixler Run near Loysville, PA",40.3709,-77.4022,02050305,56.8,2019-02-28,cfs,7,6,80.95,248.47,156.99
01568000,"Sherman Creek at Shermans Dale, PA",40.3234,-77.1689,02050305,670.29,2019-02-28,cfs,7,6,75.54,184.65,128.62
01569460,"Big Spring Creek at Big Spring, PA",40.1295,-77.4072,02050305,46.83,2019-02-28,cfs,6,0,93.33,164.72,161.99
01570000,"Conodoguinet Creek near Hogestown, PA",40.2522,-77.0211,02050305,1904.29,2019-02-28,cfs,7,6,87.59,243.58,188.89
01570500,"Susquehanna River at Harrisburg, PA",40.2548,-76.8861,02050305,52842.9,2019-02-28,cfs,7,5,64.28,153.1,102.44
01571005,"Paxton Creek near Glenwood, PA",40.3061,-76.8556,02050305,42.74,2019-02-28,cfs,7,0,64.37,246.77,144.69
01571184,"Mountain Creek near Pine Grove Furnace, ",40.0309,-77.3086,02050305,41.29,2019-02-28,cfs,7,0,82.27,177.67,146.68
01571500,"Yellow Breeches Creek near Camp Hill, PA",40.2248,-76.898,02050305,712.14,2019-02-28,cfs,7,6,79.37,199.96,151.32
01572025,"Swatara Creek near Pine Grove, PA",40.5326,-76.4022,02050305,401.71,2019-02-28,cfs,7,0,74.29,192.08,131.56
01572190,"Swatara Creek near Inwood, PA",40.4793,-76.5308,02050305,584.29,2019-02-28,cfs,7,0,77.53,197.64,139.7
01573000,"Swatara Creek at Harper Tavern, PA",40.4026,-76.5772,02050305,1270.71,2019-02-28,cfs,7,5,72.04,196.12,130.65
01573160,"Quittapahilla Creek near Bellegrove, PA",40.3426,-76.5619,02050305,235.86,2019-02-28,cfs,7,0,84.72,206.64,152.69
01573560,"Swatara Creek near Hershey, PA",40.2984,-76.6677,02050305,1847.14,2019-02-28,cfs,7,6,79.53,194.2,145.68
01573695,"Conewago Creek near Bellaire, PA",40.1953,-76.5678,02050305,69.24,2019-02-28,cfs,7,0,64.23,235.75,136.68
01573710,"Conewago Creek near Falmouth, PA",40.1511,-76.6894,02050305,,,,,0,,,
01573825,"West Conewago Creek at East Berlin, PA",39.9412,-76.99,02050306,886.14,2019-02-28,cfs,7,0,83.27,195.68,180.9
01573849,"Bermudian Creek at Oxford Road nr Heidle",39.9802,-77.1546,02050306,39.54,2019-02-28,cfs,7,0,83.86,223.39,184.08
01574000,"West Conewago Creek near Manchester, PA",40.0823,-76.72,02050306,1972.86,2019-02-28,cfs,7,6,80.32,232.06,156.85
01574500,"Codorus Creek at Spring Grove, PA",39.8787,-76.8533,02050306,221.43,2019-02-28,cfs,7,6,84.21,238.1,179.05
01575500,"Codorus Creek near York, PA",39.9462,-76.7552,02050306,751.57,2019-02-28,cfs,7,6,85.08,309.38,190.61
01575585,"Codorus Creek at Pleasureville, PA",40.0187,-76.693,02050306,826.14,2019-02-28,cfs,7,0,78.43,229.94,159.64
01576000,"Susquehanna River at Marietta, PA",40.0545,-76.5308,02050306,60700,2019-02-28,cfs,7,5,65.69,150.67,105.09
01576500,"Conestoga River at Lancaster, PA",40.0501,-76.2772,02050306,1032.14,2019-02-28,cfs,7,6,81.39,201.37,153.87
01576754,"Conestoga River at Conestoga, PA",39.9465,-76.3677,02050306,1584.29,2019-02-28,cfs,7,6,83.29,212.7,169.81
01576767,"Pequea Creek near Ronks, PA",40.0092,-76.1622,02050306,192,2019-02-28,cfs,7,0,72.05,152.31,146.91
01576787,"Pequea Creek at Martic Forge, PA",39.9059,-76.3283,02050306,421,2019-02-28,cfs,7,0,82.08,176.34,126.67
01577500,"Muddy Creek at Castle Fin, PA",39.7726,-76.3158,02050306,394.29,2019-02-28,cfs,7,0,70.63,213.29,142.61
01578310,"SUSQUEHANNA RIVER AT CONOWINGO, MD",39.6579,-76.1744,02050306,61657.1,2019-02-28,cfs,7,5,66.37,136.19,100.33
01578475,"Octoraro Creek near Richardsmere, MD",39.7068,-76.1152,02050306,482.43,2019-02-28,cfs,7,0,77.37,169.49,136.23
01580000,"DEER CREEK AT ROCKS, MD",39.63,-76.4033,02050306,290.43,2019-02-28,cfs,7,6,83.99,210.9,157.53
01580520,"DEER CREEK NEAR DARLINGTON, MD",39.6174,-76.1919,02050306,501.86,2019-02-28,cfs,7,0,81.59,202.24,158.88
01580700,"SWAN CREEK AT SWAN CREEK, MD",39.5226,-76.1423,02060003,35.87,2019-02-28,cfs,7,0,61.12,187.6,116.35
01581500,"BYNUM RUN AT BEL AIR, MD",39.5415,-76.3301,02060003,20.43,2019-02-28,cfs,7,5,71.51,177.19,103.92
01581649,"JAMES RUN NEAR BELCAMP, MD",39.4922,-76.2591,02060003,26.7,2019-02-28,cfs,7,0,70.57,221.95,127.57
01581700,"WINTERS RUN NEAR BENSON, MD",39.5199,-76.373,02060003,106.09,2019-02-28,cfs,7,6,85.31,199.64,141.81
01581750,"WINTERS RUN HD OF OTTER PT CREEK NEAR BE",39.5155,-76.3688,02060003,112.14,2019-02-28,cfs,7,0,47.08,85.85,85.85
01581752,"PLUMTREE RUN NEAR BEL AIR, MD",39.4963,-76.3474,02060003,6.27,2019-02-28,cfs,7,0,76.42,229.67,120.81
01581757,"OTTER POINT CREEK NEAR EDGEWOOD, MD",39.4393,-76.306,02060003,162.14,2019-02-28,cfs,7,0,80.01,212.14,125.96
01581810,"GUNPOWDER FALLS AT HOFFMANVILLE, MD",39.6898,-76.7815,02060003,78.99,2019-02-28,cfs,7,0,79.85,197.33,154.79
01581830,"GRAVE RUN NEAR BECKLEYSVILLE, MD",39.6548,-76.7809,02060003,24.29,2019-02-28,cfs,7,0,86.6,192.02,174.62
01581870,"GEORGES RUN NEAR BECKLEYSVILLE, MD",39.6259,-76.7725,02060003,44.69,2019-02-28,cfs,7,0,78.74,196.53,148.72
01581920,"GUNPOWDER FALLS NEAR PARKTON, MD",39.6189,-76.6903,02060003,251.57,2019-02-28,cfs,7,0,91.09,287.44,243.53
01581960,"BEETREE RUN AT BENTLEY SPRINGS, MD",39.6731,-76.6752,02060003,28.64,2019-02-28,cfs,7,0,85.79,180.13,163.28
01582000,"LITTLE FALLS AT BLUE MOUNT, MD",39.6041,-76.6205,02060003,160.29,2019-02-28,cfs,7,6,86.66,206.72,160.37
01582500,"GUNPOWDER FALLS AT GLENCOE, MD",39.5497,-76.6361,02060003,495.57,2019-02-28,cfs,7,6,86.63,234.39,175.79
01583100,"PINEY RUN AT DOVER, MD",39.5206,-76.7669,02060003,36.39,2019-02-28,cfs,7,0,88.78,211.2,179.17
01583500,"WESTERN RUN AT WESTERN RUN, MD",39.5108,-76.6765,02060003,187.14,2019-02-28,cfs,7,7,90.32,248.33,182.24
01583570,"POND BRANCH AT OREGON RIDGE, MD",39.4803,-76.6875,02060003,0.38,2019-02-28,cfs,7,0,95,271.43,237.5
01583580,"BAISMAN RUN AT BROADMOOR, MD",39.4795,-76.678,02060003,3.98,2019-02-28,cfs,7,0,88.21,299.25,207.29
01583600,"BEAVERDAM RUN AT COCKEYSVILLE, MD",39.4856,-76.6457,02060003,54.07,2019-02-28,cfs,7,6,82.34,190.19,152.35
01583800,"LONG QUARTER BRANCH AT LUTHERVILLE, MD",39.4256,-76.5962,02060003,4.16,2019-02-28,cfs,7,0,63.94,196.23,101.71
01584050,"LONG GREEN CREEK AT GLEN ARM, MD",39.4547,-76.4789,02060003,27.4,2019-02-28,cfs,7,6,86.22,231.42,155.51
01584500,"LITTLE GUNPOWDER FALLS AT LAUREL BROOK, ",39.5054,-76.4318,02060003,109.47,2019-02-28,cfs,7,6,82.34,219.55,165.34
01585075,"FOSTER BRANCH NEAR JOPPATOWNE, MD",39.4085,-76.3426,02060003,3.77,2019-02-28,cfs,7,0,46.79,84.34,84.34
01585090,"WHITEMARSH RUN NEAR FULLERTON, MD",39.3796,-76.4958,02060003,6.61,2019-02-28,cfs,7,0,76.57,169.49,102.96
01585100,"WHITEMARSH RUN AT WHITE MARSH, MD",39.3708,-76.4461,02060003,19.99,2019-02-28,cfs,7,5,72.43,195.41,102.2
01585104,"HONEYGO RUN NEAR WHITE MARSH, MD",39.383,-76.433,02060003,7.34,2019-02-28,cfs,7,0,79.13,274.91,129
01585200,"WEST BRANCH HERRING RUN AT IDLEWYLDE, MD",39.3736,-76.5843,02060003,4.67,2019-02-28,cfs,7,5,73.93,200.43,120.67
01585219,"HERRING RUN AT SINCLAIR LANE AT BALTIMOR",39.318,-76.5551,02060003,61.71,2019-02-28,cfs,7,0,62.9,157.83,86.49
01585225,"MOORES RUN TRIB. NEAR TODD AVE AT BALTIM",39.3367,-76.5406,02060003,0.34,2019-02-28,cfs,7,0,73.5,200,106.25
01585230,"MOORES RUN AT RADECKE AVE AT BALTIMORE, ",39.3301,-76.5349,02060003,6.3,2019-02-28,cfs,7,0,74,213.56,93.75
01585500,"CRANBERRY BRANCH NEAR WESTMINSTER, MD",39.5927,-76.9682,02060003,11.64,2019-02-28,cfs,7,7,91.38,341.35,229.13
01586000,"NORTH BRANCH PATAPSCO RIVER AT CEDARHURS",39.503,-76.8844,02060003,161.86,2019-02-28,cfs,7,6,84.12,233.63,160.58
01586210,"BEAVER RUN NEAR FINKSBURG, MD",39.4894,-76.9029,02060003,44.9,2019-02-28,cfs,7,7,90.29,238.07,187.01
01586610,"MORGAN RUN NEAR LOUISVILLE, MD",39.4519,-76.9553,02060003,88.94,2019-02-28,cfs,7,6,85.66,230.83,178.02
01589000,"PATAPSCO RIVER AT HOLLOFIELD, MD",39.3103,-76.7924,02060003,754,2019-02-28,cfs,7,7,95.12,404.29,255.89
01589025,"PATAPSCO RIVER NEAR CATONSVILLE, MD",39.2513,-76.7638,02060003,838.43,2019-02-28,cfs,7,0,79.94,413.3,224.01
01589035,"PATAPSCO RIVER NEAR ELKRIDGE, MD",39.2273,-76.723,02060003,842.14,2019-02-28,cfs,7,0,75.63,382.79,203.47
01589100,"EAST BRANCH HERBERT RUN AT ARBUTUS, MD",39.24,-76.6922,02060003,6.91,2019-02-28,cfs,7,6,79.26,276.4,137.65
01589180,"GWYNNS FALLS AT GLYNDON, MD",39.4717,-76.8169,02060003,0.65,2019-02-28,cfs,6,0,71.67,240.74,141.3
01589197,"GWYNNS FALLS NEAR DELIGHT, MD",39.4429,-76.7834,02060003,8.7,2019-02-28,cfs,7,0,80.57,209.13,143.09
01589238,"GWYNNS FALLS TRIBUTARY AT MCDONOGH, MD",39.4004,-76.7704,02060003,0.05,2019-02-28,cfs,6,0,72.5,125,100
01589290,"SCOTTS LEVEL BRANCH AT ROCKDALE, MD",39.3616,-76.7617,02060003,6.86,2019-02-28,cfs,7,0,68.6,168.55,140.86
01589300,"GWYNNS FALLS AT VILLA NOVA, MD",39.3459,-76.7332,02060003,86.61,2019-02-28,cfs,7,6,77.64,222.08,139.45
01589305,"POWDER MILL RUN NEAR LOCHEARN, MD",39.3351,-76.7108,02060003,8.16,2019-02-28,cfs,7,0,75.35,171.79,141.91
01589312,"DEAD RUN NEAR CATONSVILLE, MD",39.2959,-76.7441,02060003,2.04,2019-02-28,cfs,7,0,71.75,221.74,164.52
01589315,"DEAD RUN AT WOODLAWN, MD",39.3133,-76.7321,02060003,5.81,2019-02-28,cfs,6,0,65.83,144.17,117.37
01589316,"DEAD RUN TRIBUTARY NEAR WOODLAWN, MD",39.3189,-76.7507,02060003,1.68,2019-02-28,cfs,6,0,65,143.59,116.67
01589317,"TRIBUTARY TO DEAD RUN TRIBUTARY AT WOODL",39.327,-76.7451,02060003,1.45,2019-02-28,cfs,6,0,63.09,190.79,115.08
01589320,"DEAD RUN TRIBUTARY AT WOODLAWN, MD",39.3181,-76.7358,02060003,6.26,2019-02-28,cfs,6,0,71.75,228.47,144.24
01589330,"DEAD RUN AT FRANKLINTOWN, MD",39.3112,-76.7166,02060003,13.53,2019-02-28,cfs,7,5,68.68,179.44,97.97
01589352,"GWYNNS FALLS AT WASHINGTON BLVD AT BALTI",39.2715,-76.6486,02060003,179.76,2019-02-28,cfs,7,0,81.92,266.04,154.51
01589440,"JONES FALLS AT SORRENTO, MD",39.3917,-76.6609,02060003,80.38,2019-02-28,cfs,5,6,87.43,248.93,179.86
01589500,"SAWMILL CREEK AT GLEN BURNIE, MD",39.17,-76.6306,02060003,13.63,2019-02-28,cfs,7,7,91.66,247.37,222.71
01589795,"SOUTH FORK JABEZ BRANCH AT MILLERSVILLE,",39.0682,-76.6515,02060004,0.69,2019-02-28,cfs,7,0,77.14,176.92,92
01591000,"PATUXENT RIVER NEAR UNITY, MD",39.2383,-77.0557,02060006,105.99,2019-02-28,cfs,7,6,89.08,237.06,169.31
01591400,"CATTAIL CREEK NEAR GLENWOOD, MD",39.256,-77.0511,02060006,69.57,2019-02-28,cfs,7,6,85.43,269.03,162.17
01591610,"PATUXENT RIVER BELOW BRIGHTON DAM NEAR B",39.1922,-77.0044,02060006,180.14,2019-02-28,cfs,7,6,81.04,191.92,158.28
01591700,"HAWLINGS RIVER NEAR SANDY SPRING, MD",39.1746,-77.0214,02060006,83.03,2019-02-28,cfs,7,6,88.39,266.63,169.17
01592500,"PATUXENT RIV NEAR LAUREL, MD",39.1157,-76.8737,02060006,291,2019-02-28,cfs,7,6,87.74,318.97,206.68
01593370,"L PAX RIV TRIB ABOVE WILDE LAKE AT COLUM",39.2258,-76.8701,02060006,2.14,2019-02-28,cfs,7,0,67.93,136.31,102.88
01593450,"L PAX RIV TRIB ABOVE LAKE ELKHORN NR GUI",39.1879,-76.8307,02060006,8.86,2019-02-28,cfs,7,0,72.94,212.47,161.38
01593500,"LITTLE PATUXENT RIVER AT GUILFORD, MD",39.1678,-76.8512,02060006,112.04,2019-02-28,cfs,7,6,84.58,260.56,162.14
01594000,"LITTLE PATUXENT RIVER AT SAVAGE, MD",39.1344,-76.8162,02060006,312.71,2019-02-28,cfs,7,6,88.31,280.63,184.72
01594440,"PATUXENT RIVER NEAR BOWIE, MD",38.9559,-76.6937,02060006,1021.71,2019-02-28,cfs,7,6,84.12,265.77,164.9
01594526,"WESTERN BRANCH AT UPPER MARLBORO, MD",38.8142,-76.7487,02060006,276.71,2019-02-28,cfs,7,0,84.8,269.25,180.7
